id,elevation,mindate,maxdate,latitude,name,datacoverage,elevationUnit,longitude,location_id_state
COOP:064599,146.0,1941-04-01,1960-06-01,41.2,"MEAD POND RESERVOIR, NY US",0.9048,METERS,-73.51667,NY
COOP:065984,4.0,1932-01-01,1937-05-01,41.25,"OLD GREENWICH, NY US",0.9848,METERS,-73.55,NY
COOP:300015,121.9,1947-10-01,1950-11-01,43.9,"ADAMS CENTER, NY US",0.8681,METERS,-76.06667,NY
COOP:300018,195.1,1965-10-01,1972-12-01,43.81667,"ADAMS, NY US",0.9996,METERS,-76.01667,NY
COOP:300023,304.5,1931-01-01,2015-11-01,42.1013,"ADDISON, NY US",0.7576,METERS,-77.2344,NY
COOP:300028,373.4,1986-01-01,1988-09-01,42.11667,"ADDISON 1 NNE, NY US",0.9701,METERS,-77.21667,NY
COOP:300042,85.3,1948-05-01,2015-11-01,42.74722,"ALBANY INTERNATIONAL AIRPORT, NY US",1.0,METERS,-73.79912,NY
COOP:300047,0.0,1948-01-01,1971-12-01,42.64611,"ALBANY, NY US",0.9963,METERS,-73.74722,NY
COOP:300048,89.3,1998-12-01,2010-04-01,42.6925,"ALBANY NWFO UNIVERSITY, NY US",0.9928,METERS,-73.8308,NY
COOP:300049,3.7,1971-12-01,1992-05-01,42.58333,"ALBANY 4 S, NY US",0.0268,METERS,-73.73333,NY
COOP:300055,143.9,1938-10-01,2015-11-01,43.26338,"ALBION, NY US",0.8661,METERS,-78.21527,NY
COOP:300063,185.0,1942-05-01,2015-11-01,42.4697,"ALCOVE DAM, NY US",0.9581,METERS,-73.9267,NY
COOP:300077,78.9,1932-03-01,1972-12-01,44.33333,"ALEXANDRIA BAY 1 SW, NY US",0.9897,METERS,-75.91667,NY
COOP:300085,586.4,1931-01-01,2015-11-01,42.27984,"ALFRED, NY US",0.9686,METERS,-77.76564,NY
COOP:300093,457.2,1931-01-01,2015-11-01,42.1003,"ALLEGANY STATE PARK, NY US",0.9833,METERS,-78.7497,NY
COOP:300136,116.1,1948-05-01,1961-03-01,41.28333,"AMAWALK, NY US",0.9613,METERS,-73.75,NY
COOP:300159,85.0,1948-05-01,1959-03-01,42.91667,"AMSTERDAM LOCK 1O, NY US",0.9848,METERS,-74.13333,NY
COOP:300167,488.0,1948-05-01,1959-06-01,42.2,"ANDES, NY US",0.7538,METERS,-74.78333,NY
COOP:300175,509.0,1931-01-01,1948-07-01,42.15,"ANDOVER, NY US",0.9621,METERS,-77.8,NY
COOP:300183,449.6,1920-01-01,2015-11-01,42.3108,"ANGELICA, NY US",0.9852,METERS,-78.023,NY
COOP:300220,434.9,1943-05-01,1995-10-01,42.5347,"ARCADE, NY US",0.9523,METERS,-78.4575,NY
COOP:300237,442.0,1948-05-01,1970-09-01,42.1,"ARENA, NY US",0.9739,METERS,-74.71667,NY
COOP:300242,519.1,1978-01-01,1978-06-01,43.25,"ARIETTA, NY US",1.0,METERS,-74.51667,NY
COOP:300246,494.1,1948-05-01,1950-03-01,42.4,"ARKPORT, NY US",0.998,METERS,-77.71667,NY
COOP:300254,399.3,1948-05-01,2014-12-01,42.1394,"ARKVILLE 2 W, NY US",0.9337,METERS,-74.6536,NY
COOP:300268,586.1,1948-05-01,1952-03-01,42.26667,"ARNOT SOIL CONSERVATION SERVICE, NY US",0.8049,METERS,-76.65,NY
COOP:300270,365.8,1955-01-01,2011-07-01,42.2632,"ARNOT FOREST, NY US",0.0463,METERS,-76.6278,NY
COOP:300317,416.1,2011-01-01,2015-11-01,42.8107,"ATTICA 7 SW, NY US",1.0,METERS,-78.3979,NY
COOP:300321,234.7,1897-09-01,2015-11-01,42.9327,"AUBURN, NY US",0.8267,METERS,-76.5447,NY
COOP:300331,253.0,1956-11-01,2015-11-01,42.7338,"AURORA RESEARCH FARM, NY US",0.9831,METERS,-76.6591,NY
COOP:300343,166.1,1931-01-01,2015-11-01,42.9203,"AVON, NY US",0.9068,METERS,-77.7557,NY
COOP:300351,14.9,1938-12-01,1959-08-01,40.71667,"BABYLON, NY US",0.8996,METERS,-73.36667,NY
COOP:300360,303.0,1931-01-01,1992-12-01,42.28333,"BAINBRIDGE 2 E, NY US",0.9476,METERS,-75.45,NY
COOP:300368,481.9,1948-05-01,1977-06-01,43.61667,"BAKERS MILLS, NY US",0.8914,METERS,-74.03333,NY
COOP:300379,115.5,1893-01-01,2015-11-01,43.15,"BALDWINSVILLE, NY US",0.8909,METERS,-76.3333,NY
COOP:300393,793.1,1948-05-01,1970-08-01,42.03333,"BALSAM LAKE, NY US",0.9887,METERS,-74.6,NY
COOP:300412,85.0,1941-07-01,1976-01-01,43.36667,"BARKER 4 NE, NY US",0.9878,METERS,-78.48333,NY
COOP:300424,463.3,1980-01-01,1990-03-01,43.81667,"BARNES CORNERS, NY US",0.9108,METERS,-75.8,NY
COOP:300443,278.3,1931-01-01,2015-11-01,43.02966,"BATAVIA, NY US",0.9833,METERS,-78.16822,NY
COOP:300448,341.4,1953-08-01,2014-12-01,42.3488,"BATH, NY US",0.9064,METERS,-77.3477,NY
COOP:300452,115.8,1955-11-01,1999-03-01,43.10139,"BATTENVILLE, NY US",0.9866,METERS,-73.43194,NY
COOP:300489,396.8,1948-03-01,1953-06-01,41.31667,"BEAR MOUNTAIN WEATHER BUREAU, NY US",0.968,METERS,-74.0,NY
COOP:300500,225.6,1934-04-01,1996-11-01,43.887,"BEAVER FALLS, NY US",0.9867,METERS,-75.4349,NY
COOP:300505,451.1,1976-01-01,1981-03-01,42.66667,"BEAVER MEADOW, NY US",1.0,METERS,-78.38333,NY
COOP:300511,131.1,1931-01-01,1977-04-01,41.23333,"BEDFORD HILLS, NY US",0.9767,METERS,-73.71667,NY
COOP:300540,473.0,1948-05-01,1951-01-01,42.11667,"BEERSTON, NY US",0.9984,METERS,-75.11667,NY
COOP:300608,201.2,1941-06-01,2015-11-01,43.5318,"BENNETTS BRIDGE, NY US",0.9788,METERS,-75.9526,NY
COOP:300613,379.5,1990-04-01,2009-02-01,42.85611,"BENNINGTON, NY US",0.9648,METERS,-78.39583,NY
COOP:300621,6.1,1950-02-01,1951-03-01,40.6,"NEW YORK BENSONHURST, NY US",1.0,METERS,-73.96667,NY
COOP:300633,323.1,1954-05-01,1954-07-01,42.3,"BERKSHIRE, NY US",0.0369,METERS,-76.18333,NY
COOP:300641,347.5,1955-11-01,2000-09-01,42.61667,"BERLIN 5 S, NY US",0.9629,METERS,-73.36667,NY
COOP:300646,267.9,1956-01-01,1958-06-01,42.68333,"BERLIN 1 S, NY US",0.0579,METERS,-73.36667,NY
COOP:300649,335.9,1956-04-01,1956-06-01,42.66667,"BERLIN 2 SE, NY US",1.0,METERS,-73.33333,NY
COOP:300652,338.9,1956-01-01,1959-09-01,42.71667,"BERLIN 3 ENE, NY US",0.8671,METERS,-73.31667,NY
COOP:300654,323.1,1966-06-01,1983-07-01,42.6,"BERNE 2 S, NY US",1.0,METERS,-74.15,NY
COOP:300655,378.0,1963-08-01,1966-05-01,42.65,"BERNE 2 NW, NY US",0.9411,METERS,-74.16667,NY
COOP:300658,563.9,1983-12-01,1998-07-01,42.58333,"BERNE 5 SW, NY US",0.983,METERS,-74.18333,NY
COOP:300668,536.4,1931-03-01,2012-12-01,43.8,"BIG MOOSE 3 SE, NY US",0.9653,METERS,-74.8667,NY
COOP:300681,260.3,1948-08-01,1948-08-01,42.1,"BINGHAMTON SUSQUEHANNA RIVER, NY US",0.9819,METERS,-75.9,NY
COOP:300686,253.9,1948-05-01,1951-07-01,42.08333,"BINGHAMTON TRI CITIES AIRPORT, NY US",0.9477,METERS,-76.1,NY
COOP:300687,486.2,1951-01-01,2015-11-01,42.2068,"BINGHAMTON GREATER AP, NY US",0.9924,METERS,-75.98,NY
COOP:300691,277.1,1948-01-01,1968-08-01,42.1,"BINGHAMTON WEATHER BUREAU CITY, NY US",0.9999,METERS,-75.91667,NY
COOP:300706,161.8,1948-05-01,1975-04-01,44.0,"BLACK RIVER 1 SW, NY US",1.0,METERS,-75.81667,NY
COOP:300732,396.2,2008-11-01,2012-12-01,41.5312,"BLOOMINGBURG 2 SW, NY US",0.9999,METERS,-74.4803,NY
COOP:300746,670.9,1948-05-01,1951-12-01,43.86667,"BLUE MOUNTAIN LAKE 2, NY US",0.954,METERS,-74.43333,NY
COOP:300766,545.6,1942-11-01,2001-06-01,42.1225,"BOLIVAR, NY US",0.6545,METERS,-78.20639,NY
COOP:300774,253.0,1934-01-01,1943-04-01,44.133333,"BONAPARTE, NY US",0.9202,METERS,-75.383333,NY
COOP:300780,360.0,1933-01-01,1966-01-01,43.51667,"BOONVILLE 2 N, NY US",0.9975,METERS,-75.36667,NY
COOP:300785,472.4,1949-10-01,2015-11-01,43.4361,"BOONVILLE 4 SSW, NY US",0.9988,METERS,-75.3697,NY
COOP:300799,573.0,1948-05-01,1959-06-01,42.26667,"BOVINA, NY US",0.9703,METERS,-74.73333,NY
COOP:300808,171.0,1948-01-01,1961-03-01,41.45,"BOYDS CORNERS, NY US",0.9561,METERS,-73.73333,NY
COOP:300816,415.1,1941-01-01,1961-01-01,42.38333,"BRADFORD 1 NW, NY US",0.9335,METERS,-77.11667,NY
COOP:300817,415.1,1961-06-01,1982-05-01,42.38333,"BRADFORD 1 NW, NY US",0.9961,METERS,-77.11667,NY
COOP:300862,31.1,1948-05-01,1976-09-01,40.78333,"BRENTWOOD, NY US",0.9512,METERS,-73.25,NY
COOP:300870,114.9,1932-01-01,2015-11-01,43.2386,"BREWERTON LOCK 23, NY US",0.9782,METERS,-76.1964,NY
COOP:300878,189.0,1948-05-01,1948-10-25,41.43333,"BREWSTER, NY US",0.9925,METERS,-73.6,NY
COOP:300889,12.8,1931-01-01,2015-11-01,40.952,"BRIDGEHAMPTON, NY US",1.0,METERS,-72.298,NY
COOP:300910,286.5,2003-08-01,2009-09-01,42.7479,"BRISTOL HARBOUR, NY US",0.8916,METERS,-77.3426,NY
COOP:300921,366.1,1932-02-01,1967-04-01,42.7,"BRISTOL SPRINGS, NY US",0.9836,METERS,-77.38333,NY
COOP:300929,256.0,1948-05-01,2001-06-01,43.05083,"BROADALBIN, NY US",0.9984,METERS,-74.19806,NY
COOP:300937,151.8,1931-01-01,1993-06-01,43.216,"BROCKPORT, NY US",0.8707,METERS,-77.9529,NY
COOP:300961,11.9,2003-06-01,2015-11-01,40.8369,"BRONX, NY US",0.9466,METERS,-73.8494,NY
COOP:300981,335.9,1978-01-01,1980-12-01,44.21667,"BROWNS FALLS, NY US",0.9998,METERS,-75.06667,NY
COOP:300985,155.4,1940-07-01,1952-12-01,41.95,"SHOKAN BROWN STATION, NY US",0.9464,METERS,-74.2,NY
COOP:301011,190.5,2014-01-01,2015-11-01,42.9461,"BUFFALO 4 NE, NY US",0.8709,METERS,-78.8368,NY
COOP:301012,218.2,1948-05-01,2015-11-01,42.9408,"BUFFALO NIAGARA INTERNATIONAL, NY US",1.0,METERS,-78.7358,NY
COOP:301032,313.9,1932-02-01,1967-05-01,42.41667,"BURDETT 1 NE, NY US",0.9671,METERS,-76.83333,NY
COOP:301052,154.8,1962-05-01,1966-05-01,42.8,"BURTONSVILLE, NY US",0.9996,METERS,-74.26667,NY
COOP:301065,463.9,1948-05-01,1959-06-01,42.16667,"BUSHNELLSVILLE 1 NE, NY US",0.9031,METERS,-74.4,NY
COOP:301068,152.1,2011-01-01,2015-11-01,42.9361,"BUSKIRK, NY US",1.0,METERS,-73.43257,NY
COOP:301079,561.1,1948-05-01,1959-06-01,41.91667,"BUTTERNUT BROOK, NY US",0.9106,METERS,-74.66667,NY
COOP:301093,92.0,1931-01-01,1963-07-01,42.31667,"CAIRO, NY US",0.9873,METERS,-74.01667,NY
COOP:301095,149.4,1979-07-01,2011-12-01,42.31667,"CAIRO 4 NW, NY US",0.9794,METERS,-74.03306,NY
COOP:301101,244.1,1949-04-01,1966-12-01,41.76667,"CALLICOON, NY US",0.9999,METERS,-75.05,NY
COOP:301102,372.2,2010-01-01,2015-11-01,41.8275,"CALLICOON CENTER, NY US",1.0,METERS,-74.9506,NY
COOP:301103,396.2,1980-01-01,2010-12-01,41.7794,"CALLICOON 2, NY US",0.0065,METERS,-75.0444,NY
COOP:301110,176.8,1946-08-01,2015-11-01,43.3305,"CAMDEN, NY US",0.8101,METERS,-75.8416,NY
COOP:301136,360.0,1973-09-01,1981-12-01,42.41667,"CANAAN 2 E, NY US",0.9999,METERS,-73.4,NY
COOP:301138,512.1,1961-01-01,1976-12-01,43.25,"CANADA LAKE, NY US",0.7604,METERS,-74.51667,NY
COOP:301144,92.0,1931-01-01,1976-12-01,42.91667,"CANAJOHARIE, NY US",0.9927,METERS,-74.58333,NY
COOP:301152,219.5,1943-01-01,2015-11-01,42.84505,"CANANDAIGUA 3 S, NY US",0.9897,METERS,-77.28071,NY
COOP:301156,384.0,1954-02-01,1974-07-01,42.46667,"CANASERAGA, NY US",0.9796,METERS,-77.78333,NY
COOP:301160,125.0,1932-01-01,1983-07-01,43.08333,"CANASTOTA, NY US",0.9823,METERS,-75.76667,NY
COOP:301168,280.4,1948-05-01,2015-11-01,42.1944,"CANDOR 2 SE, NY US",0.9556,METERS,-76.3127,NY
COOP:301170,451.1,1931-01-01,1940-06-01,42.383333,"CANEADEA DAM, NY US",1.0,METERS,-78.183333,NY
COOP:301173,352.0,1949-06-01,2008-08-01,42.26083,"CANISTEO 1 SW, NY US",0.9057,METERS,-77.61611,NY
COOP:301185,136.6,1948-05-01,2015-11-01,44.5772,"CANTON 4 SE, NY US",0.9975,METERS,-75.1097,NY
COOP:301207,161.5,1931-01-01,1996-03-01,41.43333,"CARMEL, NY US",0.8381,METERS,-73.68333,NY
COOP:301211,207.3,2003-12-01,2015-11-01,41.4725,"CARMEL 4 N, NY US",0.8611,METERS,-73.655,NY
COOP:301260,75.9,1963-08-01,1977-10-01,42.23333,"CATSKILL 1 N, NY US",0.9939,METERS,-73.86667,NY
COOP:301265,115.8,1927-01-01,2015-11-01,42.948,"CAYUGA LOCK NUMBER 1, NY US",0.9925,METERS,-76.7342,NY
COOP:301272,381.0,1948-06-01,1951-11-01,42.91667,"CAZENOVIA, NY US",0.8336,METERS,-75.86667,NY
COOP:301291,384.0,1953-07-01,1954-12-01,42.93333,"CEDARVILLE 1 N, NY US",0.9425,METERS,-75.11667,NY
COOP:301292,445.0,1955-05-01,1955-08-01,42.9,"CEDARVILLE 3 SE, NY US",0.9898,METERS,-75.08333,NY
COOP:301302,292.6,1958-05-01,1961-01-27,42.666667,"CENTER BERLIN, NY US",0.0772,METERS,-73.366667,NY
COOP:301309,9.1,2003-04-01,2015-11-01,40.8838,"CENTERPORT, NY US",0.967,METERS,-73.3722,NY
COOP:301387,323.1,1931-01-01,1995-07-01,44.75,"CHASM FALLS, NY US",0.96,METERS,-74.21667,NY
COOP:301391,128.0,1959-06-01,1970-06-01,42.36667,"CHATHAM, NY US",0.9775,METERS,-73.6,NY
COOP:301401,47.9,1931-01-01,2011-12-01,44.8786,"CHAZY, NY US",0.9404,METERS,-73.3953,NY
COOP:301413,250.5,1939-01-01,2015-11-01,42.0025,"CHEMUNG, NY US",0.9968,METERS,-76.6384,NY
COOP:301413,250.5,1939-01-01,2015-11-01,42.0025,"CHEMUNG, NY US",0.9968,METERS,-76.6384,PA
COOP:301424,402.3,1957-09-01,2007-12-01,42.9096,"CHEPACHET, NY US",1.0,METERS,-75.1109,NY
COOP:301433,427.0,1943-08-01,1949-11-01,42.61667,"CHERRY PLAIN, NY US",0.855,METERS,-73.41667,NY
COOP:301434,335.9,1956-01-01,1961-01-01,42.63333,"CHERRYPLAIN 2, NY US",0.9993,METERS,-73.35,NY
COOP:301436,414.5,1949-08-01,2010-07-01,42.8238,"CHERRY VALLEY 2 NNE, NY US",0.9563,METERS,-74.7386,NY
COOP:301466,445.0,1948-05-01,1969-11-01,42.16667,"CHINA, NY US",0.7804,METERS,-75.4,NY
COOP:301471,351.1,1956-11-01,1970-06-01,42.1,"CHINA 2, NY US",0.9576,METERS,-75.38333,NY
COOP:301483,131.1,1962-10-01,1984-12-01,42.16667,"CHURCHTOWN RESERVOIR, NY US",0.037,METERS,-73.71667,NY
COOP:301484,168.2,1954-02-01,1976-09-01,43.1006,"CHURCHVILLE, NY US",0.8898,METERS,-77.8825,NY
COOP:301492,320.0,1937-08-01,2010-12-01,42.5433,"CINCINNATUS, NY US",0.874,METERS,-75.8947,NY
COOP:301521,503.8,1948-05-01,2015-10-01,41.91355,"CLARYVILLE, NY US",0.7531,METERS,-74.57232,NY
COOP:301523,634.0,1967-09-01,1981-06-21,41.91667,"CLARYVILLE 2 SW, NY US",0.9774,METERS,-74.6,NY
COOP:301541,116.1,1932-01-01,1951-09-01,43.23333,"CLEVELAND, NY US",0.9157,METERS,-75.88333,NY
COOP:301559,85.3,1978-01-01,2013-05-01,41.8167,"CLINTON CORNERS, NY US",0.0278,METERS,-73.7667,NY
COOP:301580,119.5,1918-05-01,2015-11-01,43.05901,"CLYDE LOCK 26, NY US",0.9872,METERS,-76.83844,NY
COOP:301589,292.9,1946-01-01,1956-04-01,42.66667,"COBLESKILL, NY US",0.9439,METERS,-74.5,NY
COOP:301593,274.3,1955-11-01,1986-07-01,42.68333,"COBLESKILL, NY US",0.9946,METERS,-74.48333,NY
COOP:301595,356.3,1987-09-01,2015-11-01,42.66717,"COBLESKILL 2 ESE, NY US",0.9882,METERS,-74.44239,NY
COOP:301603,445.0,1948-05-01,1970-11-01,42.46667,"COHOCTON SOIL CONSERVATION SERVICE, NY US",0.9963,METERS,-77.5,NY
COOP:301615,198.1,1948-05-01,1959-06-01,42.01667,"COLD BROOK, NY US",0.9778,METERS,-74.26667,NY
COOP:301623,312.4,1957-08-01,2002-08-01,42.66306,"COLDEN 1 N, NY US",0.9963,METERS,-78.68306,NY
COOP:301625,467.9,2005-03-01,2015-11-01,42.6472,"COLDEN 1 W, NY US",0.9766,METERS,-78.7111,NY
COOP:301664,176.8,1934-01-01,2015-11-01,44.5842,"COLTON 2 N, NY US",0.9339,METERS,-74.9573,NY
COOP:301700,256.3,1953-07-01,1956-10-01,42.03333,"CONKLIN, NY US",0.9988,METERS,-75.8,NY
COOP:301702,260.9,2009-05-01,2009-12-01,42.06389,"CONKLIN 2, NY US",0.9939,METERS,-75.81028,NY
COOP:301708,246.3,1931-01-01,2015-11-01,43.3203,"CONKLINGVILLE DAM, NY US",0.9667,METERS,-73.9256,NY
COOP:301713,223.1,1948-05-01,1961-07-01,43.31667,"CONKLINGVILLE DAM 2, NY US",0.9433,METERS,-73.91667,NY
COOP:301718,246.3,1948-05-01,1953-07-01,43.31667,"CONKLINGVILLE DAM NUMBER 3, NY US",0.9512,METERS,-73.91667,NY
COOP:301723,128.0,1965-11-01,1982-02-01,44.91667,"CONSTABLE 1 S, NY US",0.9646,METERS,-74.3,NY
COOP:301728,116.1,1952-01-01,1964-12-01,43.25,"CONSTANTIA, NY US",0.9421,METERS,-76.0,NY
COOP:301732,177.1,2003-01-01,2007-12-01,43.3426,"CONSTANTIA 6 N, NY US",0.9835,METERS,-76.0006,NY
COOP:301752,383.1,1931-01-01,2015-11-01,42.7166,"COOPERSTOWN, NY US",0.9981,METERS,-74.9266,NY
COOP:301761,167.6,1987-12-01,2015-11-01,42.1131,"COPAKE, NY US",0.952,METERS,-73.5522,NY
COOP:301787,349.6,1931-01-01,2015-11-01,42.1341,"CORNING, NY US",0.7822,METERS,-77.0691,NY
COOP:301792,499.9,1977-01-01,1986-06-01,42.06667,"CORNING 5 SSW, NY US",1.0,METERS,-77.05,NY
COOP:301794,317.0,1986-08-01,1988-08-01,42.13333,"CORNING 5 W, NY US",0.9986,METERS,-77.15,NY
COOP:301799,344.1,1892-03-01,2000-12-01,42.6,"CORTLAND, NY US",0.9831,METERS,-76.18333,NY
COOP:301850,427.0,1948-05-01,1959-06-01,41.96667,"CRAIGIE CLAIR, NY US",0.9703,METERS,-74.86667,NY
COOP:301896,73.2,1948-05-01,1961-03-01,41.26667,"CROSS RIVER, NY US",0.9161,METERS,-73.68333,NY
COOP:301904,67.1,1948-05-01,1961-03-01,41.35,"CROTON FALLS 1 NE, NY US",0.9032,METERS,-73.66667,NY
COOP:301912,75.9,1948-05-01,1961-03-01,41.23333,"CROTON LAKE, NY US",0.9677,METERS,-73.8,NY
COOP:301949,11.9,1931-01-01,1976-07-30,41.01667,"CUTCHOGUE, NY US",0.8681,METERS,-72.5,NY
COOP:301966,408.4,1931-01-01,2015-11-01,44.7192,"DANNEMORA, NY US",0.9932,METERS,-73.7205,NY
COOP:301974,201.2,1931-01-01,2015-11-01,42.56477,"DANSVILLE, NY US",0.9578,METERS,-77.71762,NY
COOP:301979,208.8,1945-12-01,2010-03-01,42.57083,"DANSVILLE MUNICIPAL AIRPORT, NY US",0.8864,METERS,-77.71333,NY
COOP:301987,411.5,1948-05-01,1994-02-01,42.46667,"DAVENPORT 2 E, NY US",0.7073,METERS,-74.8,NY
COOP:302031,299.9,2005-04-01,2015-11-01,42.7672,"DELANSON 2 NE, NY US",0.9766,METERS,-74.1711,NY
COOP:302036,445.0,1931-01-01,2010-12-01,42.2533,"DELHI 2 SE, NY US",0.8844,METERS,-74.905,NY
COOP:302045,171.0,1931-01-01,1976-08-01,43.26667,"DELTA, NY US",0.9799,METERS,-75.43333,NY
COOP:302047,167.6,2000-04-01,2014-12-01,43.2735,"DELTA DAM, NY US",0.8361,METERS,-75.4271,NY
COOP:302060,304.8,1962-07-01,2011-12-01,42.0627,"DEPOSIT, NY US",0.9966,METERS,-75.4263,NY
COOP:302071,200.9,1945-05-01,1961-07-01,42.7,"DERBY 2 NW, NY US",0.9999,METERS,-79.0,NY
COOP:302079,396.8,1932-01-01,1984-03-01,42.81667,"DE RUYTER 4 N, NY US",0.9681,METERS,-75.88333,NY
COOP:302091,36.6,1987-08-01,1991-05-01,40.8,"DIX HILLS, NY US",1.0,METERS,-73.3,NY
COOP:302129,61.0,1945-10-01,2014-01-01,41.0072,"DOBBS FERRY ARDSLEY, NY US",0.9902,METERS,-73.8344,NY
COOP:302137,208.8,1931-01-01,1994-07-01,43.08333,"DOLGEVILLE, NY US",0.9895,METERS,-74.76667,NY
COOP:302151,1.5,2011-01-01,2015-11-01,40.7211,"MOLLOY CERCOM, NY ",0.8818,METERS,-73.0908,NY
COOP:302164,338.9,1948-05-01,1967-10-01,42.08333,"DOWNSVILLE, NY US",0.9615,METERS,-75.0,NY
COOP:302169,365.8,1959-05-01,2015-11-01,42.0772,"DOWNSVILLE DAM, NY US",0.6082,METERS,-74.9827,NY
COOP:302197,192.3,2015-06-01,2015-11-01,42.4718,"DUNKIRK, NY US",0.998,METERS,-79.33371,NY
COOP:302198,180.1,1948-05-01,1977-05-01,42.48333,"DUNKIRK POWER PLANT, NY US",0.9406,METERS,-79.35,NY
COOP:302234,548.9,1953-07-01,1980-12-01,43.75,"EAGLE BAY 3 SE, NY US",0.9968,METERS,-74.76667,NY
COOP:302236,115.8,1955-10-01,1985-01-01,42.9333,"EAGLE BRIDGE 2 SE, NY US",0.9799,METERS,-73.3667,NY
COOP:302239,396.8,1931-01-01,1963-06-01,43.91667,"EAGLE FALLS, NY US",0.9976,METERS,-75.2,NY
COOP:302277,265.2,1956-07-01,1985-04-01,42.9,"EAST BLOOMFIELD, NY US",0.9706,METERS,-77.43333,NY
COOP:302282,139.9,1948-05-01,1961-03-01,41.4,"EAST BRANCH, NY US",0.9161,METERS,-73.58333,NY
COOP:302286,281.6,2001-05-01,2009-03-01,42.43944,"EAST CHATHAM, NY US",0.9683,METERS,-73.50278,NY
COOP:302291,36.9,1948-05-01,1958-11-01,40.93333,"EASTCHESTER, NY US",0.992,METERS,-73.8,NY
COOP:302302,509.0,1948-05-01,1955-06-01,42.3,"DELHI 1 NW, NY US",0.8723,METERS,-74.93333,NY
COOP:302351,451.1,1948-05-01,1967-09-01,42.7,"EAST HOMER, NY US",0.7805,METERS,-76.11667,NY
COOP:302356,476.1,1949-03-01,1969-08-01,42.71667,"EAST HOMER 2, NY US",0.9673,METERS,-76.11667,NY
COOP:302362,566.9,1948-05-01,1959-06-01,42.25,"EAST JEWETT, NY US",0.9852,METERS,-74.18333,NY
COOP:302366,606.9,1985-08-01,2015-11-01,42.23432,"EAST JEWETT, NY US",0.9863,METERS,-74.14436,NY
COOP:302454,352.0,1950-03-01,2015-11-01,42.33278,"EAST SIDNEY, NY US",0.1041,METERS,-75.22982,NY
COOP:302506,256.0,1964-08-01,1975-08-01,42.65,"EDEN, NY US",0.6993,METERS,-78.9,NY
COOP:302517,506.0,1948-05-01,1963-06-01,42.13333,"EDGEWOOD, NY US",0.9342,METERS,-74.23333,NY
COOP:302526,359.7,1948-05-01,1990-05-01,42.68333,"EDMESTON, NY US",0.9512,METERS,-75.25,NY
COOP:302530,471.8,1975-08-01,2008-08-01,42.76694,"EDMESTON 5 N, NY US",0.0223,METERS,-75.23444,NY
COOP:302554,186.2,1942-09-01,2015-11-01,44.2138,"ELIZABETHTOWN, NY US",0.9147,METERS,-73.5986,NY
COOP:302562,686.1,1948-05-01,1959-06-01,42.16667,"ELKA PARK, NY US",0.9778,METERS,-74.16667,NY
COOP:302574,289.6,1945-09-01,2015-11-01,44.913,"ELLENBURG DEPOT, NY US",0.9585,METERS,-73.8223,NY
COOP:302582,106.7,1948-05-01,2010-10-01,41.7167,"ELLENVILLE, NY US",0.9227,METERS,-74.4,NY
COOP:302599,236.2,1942-05-01,1982-04-01,42.85,"ELMA, NY US",0.5979,METERS,-78.63333,NY
COOP:302610,288.6,1931-01-01,2015-11-01,42.0997,"ELMIRA, NY US",0.9961,METERS,-76.8358,NY
COOP:302615,291.1,1938-07-01,1960-05-01,42.15944,"ELMIRA CORNING REGIONAL AIRPORT, NY US",0.7338,METERS,-76.89194,NY
COOP:302627,252.1,1985-08-01,2004-11-01,42.08583,"ENDICOTT, NY US",0.987,METERS,-76.08778,NY
COOP:302666,238.0,1948-05-01,1960-12-01,43.01667,"EPHRATAH, NY US",0.9931,METERS,-74.53333,NY
COOP:302683,167.9,1955-11-01,1962-04-01,42.76667,"ESPERANCE, NY US",0.8594,METERS,-74.25,NY
COOP:302686,335.3,1992-02-01,1995-07-01,42.45,"ESPERANCE 2 N, NY US",0.9772,METERS,-74.28333,NY
COOP:302720,445.0,1979-08-01,1981-12-01,43.15,"FAIRFIELD, NY US",0.9641,METERS,-74.9,NY
COOP:302760,24.1,1931-01-01,1956-11-01,40.75,"FARMINGDALE 2 NE, NY US",0.7492,METERS,-73.43333,NY
COOP:302829,310.9,1953-04-01,2006-11-01,41.96667,"FISHS EDDY, NY US",0.8603,METERS,-75.18333,NY
COOP:302888,136.9,1945-11-01,1949-05-01,42.96667,"FONDA, NY US",0.6283,METERS,-74.41667,NY
COOP:302917,345.0,1934-03-01,1978-12-01,43.43333,"FORESTPORT, NY US",0.9386,METERS,-75.21667,NY
COOP:302934,192.0,1975-05-01,1985-10-01,44.03333,"FORT DRUM, NY US",0.9519,METERS,-75.76667,NY
COOP:302953,93.0,1949-10-01,2015-11-01,42.9383,"FORT PLAIN, NY US",0.0643,METERS,-74.6228,NY
COOP:302956,217.0,1948-01-01,1948-08-22,42.96667,"FORT PLAIN WEATHER BUREAU AIRPORT, NY US",0.998,METERS,-74.66667,NY
COOP:303010,125.0,1931-01-01,1997-10-01,43.06667,"FRANKFORT LOCK 19, NY US",0.9526,METERS,-75.11667,NY
COOP:303020,408.4,1936-08-01,1943-06-01,42.333333,"FRANKLIN, NY US",1.0,METERS,-75.166667,NY
COOP:303025,484.6,1931-09-01,2015-11-01,42.3295,"FRANKLINVILLE, NY US",0.9268,METERS,-78.4637,NY
COOP:303033,231.6,1931-01-01,2011-12-01,42.4496,"FREDONIA, NY US",0.9969,METERS,-79.3119,NY
COOP:303038,136.9,1963-08-01,1978-12-01,42.36667,"FREEHOLD 2 NW, NY US",0.9673,METERS,-74.06667,NY
COOP:303042,6.1,1948-05-01,1961-03-01,40.66667,"FREEPORT, NY US",0.8,METERS,-73.6,NY
COOP:303050,320.0,1948-06-01,2015-11-01,42.5192,"FREEVILLE 1 NE, NY US",0.9346,METERS,-76.331,NY
COOP:303065,499.9,1968-07-01,2009-12-01,42.13778,"FRIENDSHIP 7 SW, NY US",0.9999,METERS,-78.23722,NY
COOP:303069,473.0,1951-10-01,1956-04-01,42.19083,"FRIENDSHIP, NY US",1.0,METERS,-78.14583,NY
COOP:303070,603.5,1956-10-01,1968-12-01,42.1625,"FRIENDSHIP 5 SW, NY US",0.9523,METERS,-78.200278,NY
COOP:303076,561.1,1948-05-01,1981-02-01,41.96667,"FROST VALLEY, NY US",0.9823,METERS,-74.55,NY
COOP:303087,109.7,1932-01-01,2015-11-01,43.3049,"FULTON, NY US",0.566,METERS,-76.3938,NY
COOP:303102,537.1,1931-01-01,1978-03-01,44.43333,"GABRIELS, NY US",0.5044,METERS,-74.16667,NY
COOP:303124,602.0,1971-07-01,1998-04-01,42.7,"GANNETT HILL, NY US",0.9876,METERS,-77.4,NY
COOP:303128,171.0,1954-03-01,1979-12-01,43.00998,"GARBUTT, NY US",0.9999,METERS,-77.79156,NY
COOP:303138,97.5,1956-12-01,1987-10-01,41.68333,"GARDINER 1 W, NY US",0.9812,METERS,-74.15,NY
COOP:303144,140.2,1956-11-01,2011-12-01,41.34583,"GARDNERVILLE, NY US",0.9124,METERS,-74.48722,NY
COOP:303152,56.7,1983-08-01,1989-06-01,41.21667,"GARNERVILLE, NY US",1.0,METERS,-74.0,NY
COOP:303177,180.1,1883-01-01,1968-12-01,42.88333,"GENEVA EXPERIMENT ST, NY US",0.9903,METERS,-77.0,NY
COOP:303182,189.0,1948-05-01,1955-05-01,42.88333,"GENEVA SOIL CONSERVATION SERVICE, NY US",0.9999,METERS,-77.01667,NY
COOP:303184,218.8,1968-05-01,2015-11-01,42.8766,"GENEVA RESEARCH FARM, NY US",0.9947,METERS,-77.0307,NY
COOP:303250,329.2,2015-05-01,2015-11-01,43.7116,"GLENFIELD 1 W, NY US",0.9956,METERS,-75.4258,NY
COOP:303251,262.1,1948-05-01,1959-06-01,42.01667,"GLENFORD, NY US",0.9106,METERS,-74.13333,NY
COOP:303259,83.8,1932-02-01,1996-08-01,41.51667,"GLENHAM, NY US",0.9948,METERS,-73.93333,NY
COOP:303284,153.6,1941-03-01,2015-11-01,43.3246,"GLENS FALLS FARM, NY US",0.9599,METERS,-73.6781,NY
COOP:303289,107.0,1932-01-01,1956-09-01,43.31667,"GLENS FALLS FIRE STATION, NY US",0.4478,METERS,-73.65,NY
COOP:303294,97.8,1947-05-01,2015-11-01,43.33845,"GLENS FALLS AIRPORT, NY US",0.9757,METERS,-73.61028,NY
COOP:303299,92.0,1948-05-01,1956-03-01,43.28333,"GLENS FALLS FEDR DAM, NY US",0.9788,METERS,-73.66667,NY
COOP:303319,246.9,1931-01-01,2006-11-01,43.04917,"GLOVERSVILLE, NY US",0.9671,METERS,-74.35917,NY
COOP:303322,443.5,2011-01-01,2015-11-01,43.115,"GLOVERSVILLE 7 NW PECK LAKE, NY US",1.0,METERS,-74.4236,NY
COOP:303324,415.1,1948-05-01,1960-12-01,43.1,"GLOVERSVILLE PECKS P, NY US",0.9799,METERS,-74.43333,NY
COOP:303346,128.0,1936-11-01,2015-11-01,44.354,"GOUVERNEUR 3 NW, NY US",0.9958,METERS,-75.5123,NY
COOP:303354,265.2,1945-11-01,1997-06-01,42.485,"HELMUTH FIRE CONTROL, NY US",0.9614,METERS,-78.93667,NY
COOP:303360,475.5,1950-09-01,2004-11-01,42.78333,"GRAFTON, NY US",0.9769,METERS,-73.46667,NY
COOP:303365,292.6,1948-05-01,2003-04-01,41.85,"GRAHAMSVILLE, NY US",0.9349,METERS,-74.53333,NY
COOP:303373,415.1,1948-05-01,1977-12-01,42.36667,"GRAND GORGE, NY US",0.9943,METERS,-74.48333,NY
COOP:303416,342.0,1950-01-01,1960-02-01,43.13333,"GRAVESVILLE 2 N, NY US",1.0,METERS,-75.11667,NY
COOP:303444,280.4,1936-08-01,2015-11-01,42.3239,"GREENE, NY US",0.9044,METERS,-75.7711,NY
COOP:303452,185.9,1931-01-01,1955-05-01,43.11667,"GREENFIELD CENTER, NY US",1.0,METERS,-73.83333,NY
COOP:303464,4.9,1958-06-01,2000-06-01,41.10194,"GREENPORT POWER HOUS, NY US",0.9049,METERS,-72.37306,NY
COOP:303507,158.2,1960-07-01,1995-08-01,43.23333,"GRIFFISS AFB, NY US",1.0,METERS,-75.4,NY
COOP:303520,177.1,1956-07-01,1973-06-01,42.66667,"GROVELAND, NY US",0.9609,METERS,-77.76667,NY
COOP:303566,598.0,1948-05-01,1951-02-01,42.21667,"HALCOTT 2 NNE, NY US",1.0,METERS,-74.46667,NY
COOP:303567,598.0,1951-03-01,1959-06-01,42.21667,"HALCOTT 2 NNE, NY US",0.9899,METERS,-74.46667,NY
COOP:303575,297.5,1953-05-01,1962-06-01,42.0,"HALE EDDY, NY US",0.9455,METERS,-75.38333,NY
COOP:303590,185.9,2003-06-01,2003-10-01,42.75167,"HAMBURG, NY US",0.9947,METERS,-78.89111,NY
COOP:303591,234.7,2015-09-01,2015-11-01,42.7276,"HAMBURG 3 W, NY US",1.0,METERS,-78.8812,NY
COOP:303602,369.1,1937-03-01,1963-09-01,42.81667,"HAMILTON, NY US",0.8808,METERS,-75.53333,NY
COOP:303616,238.0,1942-01-01,1954-04-01,42.4,"HAMMONDSPORT 1 W, NY US",0.9193,METERS,-77.25,NY
COOP:303617,238.0,1954-05-01,1963-01-01,42.4,"HAMMONDSPORT 1 W, NY US",0.9994,METERS,-77.25,NY
COOP:303619,396.2,1932-02-01,1941-12-01,42.433333,"HAMMONDSPORT, NY US",0.9076,METERS,-77.15,NY
COOP:303669,390.1,1948-05-01,1956-03-01,42.15,"HARPURSVILLE, NY US",0.9788,METERS,-75.61667,NY
COOP:303714,306.9,1948-05-01,1959-05-01,42.01667,"HARVARD RIVER, NY US",0.9925,METERS,-75.11667,NY
COOP:303722,502.9,1931-01-01,2000-07-01,42.42056,"HASKINVILLE, NY US",0.9533,METERS,-77.5675,NY
COOP:303766,237.7,1967-05-01,1997-08-01,42.5,"HECTOR, NY US",0.9422,METERS,-76.88333,NY
COOP:303769,265.2,1997-07-01,1999-01-01,42.485,"HELMUTH FIRE CONTROL, NY US",0.9971,METERS,-78.93667,NY
COOP:303773,274.9,1898-05-01,2015-11-01,42.7743,"HEMLOCK, NY US",0.983,METERS,-77.6083,NY
COOP:303781,24.1,1950-06-01,1972-06-01,40.71667,"HEMPSTEAD GARDEN CIT, NY US",0.9924,METERS,-73.63333,NY
COOP:303786,11.9,1948-05-01,1966-05-01,40.68333,"HEMPSTEAD MALVERNE, NY US",0.9539,METERS,-73.66667,NY
COOP:303831,512.1,1948-05-01,1948-09-30,43.4,"HIGGINS BAY, NY US",0.9947,METERS,-74.53333,NY
COOP:303839,43.0,1931-01-01,1967-11-01,41.83333,"HIGH FALLS, NY US",1.0,METERS,-74.13333,NY
COOP:303851,537.4,1931-01-01,2015-11-01,43.5752,"HIGHMARKET, NY US",0.9882,METERS,-75.5207,NY
COOP:303856,542.8,1948-05-01,1968-08-01,43.58333,"HIGHMARKET 1 SE, NY US",0.9024,METERS,-75.51667,NY
COOP:303864,561.1,1948-05-01,1976-12-01,42.13333,"HIGHMOUNT, NY US",0.9679,METERS,-74.48333,NY
COOP:303881,88.1,1945-07-01,1959-08-01,43.28333,"HILTON, NY US",0.9528,METERS,-77.78333,NY
COOP:303889,347.8,1931-01-01,1993-01-01,43.3,"HINCKLEY 2 SW, NY US",0.9651,METERS,-75.15,NY
COOP:303916,573.0,1931-01-01,1965-03-01,43.38333,"HOFFMEISTER 3 W, NY US",0.9879,METERS,-74.73333,NY
COOP:303919,24.1,1972-04-01,1979-12-01,40.83333,"HOLBROOK, NY US",0.9999,METERS,-73.08333,NY
COOP:303953,131.1,1931-01-01,1952-05-01,41.75,"HONK FALLS, NY US",1.0,METERS,-74.38333,NY
COOP:303955,243.8,1992-07-01,2015-11-01,42.79148,"HONEOYE, NY US",0.9964,METERS,-77.51331,NY
COOP:303957,185.9,1954-04-01,1974-07-01,42.95,"HONEOYE FALLS, NY US",0.7213,METERS,-77.58333,NY
COOP:303961,450.5,1935-12-01,2015-11-01,43.8524,"HOOKER 12 NNW, NY US",0.9094,METERS,-75.7158,NY
COOP:303970,268.2,1931-06-01,1999-04-01,43.31167,"HOPE, NY US",0.9778,METERS,-74.24778,NY
COOP:303979,547.1,1975-08-01,2007-01-01,42.23333,"HORNBY, NY US",0.0285,METERS,-77.05,NY
COOP:303983,403.9,1950-02-01,2015-11-01,42.3488,"HORNELL ALMOND DAM, NY US",0.9581,METERS,-77.7044,NY
COOP:304024,98.1,1947-01-01,1957-03-01,42.25,"HUDSON, NY US",0.9501,METERS,-73.78333,NY
COOP:304025,9.1,1957-03-01,2013-02-01,42.24746,"HUDSON CORRECTIONAL FACILITY, NY US",0.9847,METERS,-73.79219,NY
COOP:304052,499.9,1963-10-01,1964-12-01,42.2,"HUNTER MOUNTAIN, NY US",0.9969,METERS,-74.21667,NY
COOP:304070,424.9,1948-05-01,2011-05-01,42.4271,"HUNTS CORNERS, NY US",0.8536,METERS,-76.1253,NY
COOP:304102,509.0,1931-01-01,2015-11-01,43.75477,"INDIAN LAKE 2 SW, NY US",0.9912,METERS,-74.27558,NY
COOP:304111,177.1,1948-05-01,1960-09-01,43.06667,"INGHAMS, NY US",0.973,METERS,-74.76667,NY
COOP:304130,25.6,1986-10-01,2015-11-01,40.79388,"ISLIP LI MACARTHUR AIRPORT, NY US",0.9486,METERS,-73.10189,NY
COOP:304174,292.6,1918-08-01,2015-11-01,42.4491,"ITHACA CORNELL UNIVERSITY, NY US",0.887,METERS,-76.4491,NY
COOP:304178,283.2,1931-01-01,1942-12-01,42.45,"ITHACA, NY US",1.0,METERS,-76.483333,NY
COOP:304182,118.9,1931-01-01,1963-09-01,43.01667,"JACKSONBURG, NY US",0.9848,METERS,-74.91667,NY
COOP:304206,424.0,1931-01-01,1960-10-01,42.1,"JAMESTOWN, NY US",0.9972,METERS,-79.25,NY
COOP:304207,381.0,1960-09-01,2015-11-01,42.11,"JAMESTOWN 4 ENE, NY US",0.7738,METERS,-79.1591,NY
COOP:304208,423.7,1962-09-01,1973-12-31,42.11667,"JAMESTOWN WATERWORKS, NY US",0.9998,METERS,-79.23333,NY
COOP:304234,329.2,1931-01-01,1947-07-01,41.783333,"JEFFERSONVILLE, NY US",1.0,METERS,-74.933333,NY
COOP:304271,107.0,1948-05-01,1965-06-01,42.91667,"JOHNSONVILLE, NY US",0.9855,METERS,-73.51667,NY
COOP:304332,390.1,1955-08-01,1969-12-01,44.18333,"KEENE VALLEY 1 W, NY US",0.0496,METERS,-73.8,NY
COOP:304353,98.1,1941-07-01,1951-01-01,43.33333,"KENDALL, NY US",0.7214,METERS,-78.03333,NY
COOP:304424,14.9,1948-05-01,1973-01-01,41.91667,"KINGSTON CITY HALL, NY US",0.7805,METERS,-73.98333,NY
COOP:304426,14.9,1973-01-01,1984-06-01,41.91667,"KINGSTON CITY HALL, NY US",0.0418,METERS,-73.98333,NY
COOP:304429,3.0,1957-09-01,1959-06-01,41.91667,"KINGSTON GAS PLANT, NY US",1.0,METERS,-73.98333,NY
COOP:304450,723.0,1937-09-01,1951-05-01,42.0,"KNAPP CREEK, NY US",1.0,METERS,-78.51667,NY
COOP:304472,580.0,1948-05-01,1960-10-01,42.4,"KORTRIGHT, NY US",0.9797,METERS,-74.8,NY
COOP:304473,527.3,1960-11-01,1994-09-01,42.41667,"KORTRIGHT 2, NY US",0.9583,METERS,-74.8,NY
COOP:304486,220.1,1948-05-01,1961-06-01,41.78333,"LACKAWACK, NY US",0.9937,METERS,-74.4,NY
COOP:304525,448.1,1948-05-01,1981-02-01,42.25,"LAKE DELAWARE, NY US",0.9975,METERS,-74.9,NY
COOP:304533,342.0,1948-05-01,1959-06-01,42.06667,"LAKE HILL, NY US",0.9927,METERS,-74.18333,NY
COOP:304537,185.9,2011-01-01,2015-11-01,43.2613,"LAKE LUZERNE, NY US",1.0,METERS,-73.8343,NY
COOP:304555,575.5,1931-01-01,2014-12-01,44.3042,"LAKE PLACID 2 S, NY US",0.9772,METERS,-73.9839,NY
COOP:304563,24.1,1948-05-01,1967-12-01,40.83333,"LAKE RONKONKOMA, NY US",0.8643,METERS,-73.13333,NY
COOP:304575,335.3,1985-11-01,2015-11-01,42.4486,"LANSING MANOR, NY US",0.9918,METERS,-74.4653,NY
COOP:304613,11.9,1948-05-01,1976-07-01,40.93333,"LARCHMONT, NY US",0.9999,METERS,-73.75,NY
COOP:304632,3.0,1950-08-01,1951-03-01,40.73333,"NEW YORK LAUREL HILL, NY US",1.0,METERS,-73.93333,NY
COOP:304647,142.0,1931-07-01,2008-09-01,44.7582,"LAWRENCEVILLE 3 SW, NY US",0.9956,METERS,-74.6692,NY
COOP:304698,384.0,1931-01-01,1952-08-01,42.58333,"LETCHWORTH PARK, NY US",0.9654,METERS,-78.03333,NY
COOP:304706,580.0,1948-05-01,1959-06-01,41.95,"LEWBEACH, NY US",0.9852,METERS,-74.83333,NY
COOP:304717,192.0,1987-11-01,1994-04-01,43.13333,"LEWISTON 3 SE, NY US",1.0,METERS,-78.96667,NY
COOP:304723,451.1,1948-05-01,1959-06-01,42.23333,"LEXINGTON 1 SE, NY US",0.9927,METERS,-74.33333,NY
COOP:304731,481.6,1946-07-01,2015-11-01,41.8017,"LIBERTY 1 NE, NY US",0.9472,METERS,-74.74,NY
COOP:304754,387.1,1953-07-01,1979-08-01,42.7,"LINCKLAEN, NY US",0.9999,METERS,-75.88333,NY
COOP:304767,342.0,1931-01-01,1965-04-01,42.88333,"LINDEN, NY US",0.9952,METERS,-78.16667,NY
COOP:304772,317.0,1953-08-01,2011-12-01,42.0636,"LINDLEY 2 N, NY US",0.9914,METERS,-77.1466,NY
COOP:304782,297.5,1953-07-01,1977-10-01,42.35,"LISLE, NY US",0.8081,METERS,-76.0,NY
COOP:304791,272.2,1931-01-01,2015-11-01,43.0603,"LITTLE FALLS CITY RESERVOIR, NY US",0.9274,METERS,-74.8686,NY
COOP:304796,109.7,1931-01-01,1994-09-01,43.03333,"LITTLE FALLS MILL ST, NY US",0.9804,METERS,-74.86667,NY
COOP:304801,94.2,1960-12-01,1973-07-01,43.01667,"LITTLE FALLS 5 E, NY US",0.9804,METERS,-74.78333,NY
COOP:304808,495.3,1941-08-01,2015-11-01,42.2473,"LITTLE VALLEY, NY US",0.9922,METERS,-78.8125,NY
COOP:304836,365.8,1932-01-01,2011-12-01,42.6702,"LOCKE 2 W, NY US",0.9781,METERS,-76.4722,NY
COOP:304844,185.9,1920-01-01,1999-09-01,43.18769,"LOCKPORT 4 E, NY US",0.9823,METERS,-78.60912,NY
COOP:304849,134.1,1961-06-01,1994-10-01,43.2,"LOCKPORT 4 NE, NY US",0.9975,METERS,-78.63333,NY
COOP:304912,263.0,1920-01-01,2015-11-01,43.7929,"LOWVILLE, NY US",0.9983,METERS,-75.4829,NY
COOP:304939,102.7,2004-07-01,2015-11-01,43.3391,"LYNDONVILLE, NY US",0.7518,METERS,-78.3893,NY
COOP:304944,243.8,1931-01-01,2000-12-01,43.61667,"LYONS FALLS, NY US",0.9821,METERS,-75.36667,NY
COOP:304952,142.0,1918-05-01,2015-11-01,43.0731,"MACEDON, NY US",0.8642,METERS,-77.30196,NY
COOP:304984,136.9,1967-11-01,1975-08-01,43.31667,"MALLORY, NY US",1.0,METERS,-76.1,NY
COOP:304996,267.6,1983-01-01,2015-11-01,44.8418,"MALONE, NY US",0.995,METERS,-74.306,NY
COOP:305032,493.8,1948-05-01,1995-09-01,42.38333,"MANORKILL, NY US",0.9824,METERS,-74.31667,NY
COOP:305072,313.9,1948-05-01,1968-02-01,42.98333,"MARCELLUS SOIL CONSERVATION SERVICE, NY US",0.9999,METERS,-76.38333,NY
COOP:305113,373.4,1984-06-01,2015-11-01,42.4694,"EMMONS, NY US",0.9974,METERS,-75.0105,NY
COOP:305120,463.9,1948-05-01,1976-12-01,42.05,"MARY SMITH, NY US",0.997,METERS,-74.81667,NY
COOP:305129,67.1,1939-11-01,1992-08-01,44.98333,"MASSENA SNELL LOCK, NY US",1.0,METERS,-74.78333,NY
COOP:305134,65.2,1948-08-01,2005-01-01,44.93583,"MASSENA INTERNATIONAL AIRPORT, NY US",0.9852,METERS,-74.84583,NY
COOP:305139,92.0,1948-05-01,1948-08-01,44.93333,"MASSENA HIGH SCHOOL, NY US",0.998,METERS,-74.88333,NY
COOP:305142,6.1,2011-01-01,2015-11-01,40.98849,"MATTITUCK, NY US",0.9835,METERS,-72.51034,NY
COOP:305171,121.9,1918-04-01,1996-07-01,43.0,"MAYS POINT LOCK 25, NY US",0.9819,METERS,-76.76667,NY
COOP:305180,421.2,2006-02-01,2010-10-01,42.23944,"MAYVILLE, NY US",1.0,METERS,-79.50778,NY
COOP:305199,451.1,1931-01-01,1953-08-01,43.61667,"MCKEEVER, NY US",0.8566,METERS,-75.11667,NY
COOP:305231,11.9,1931-01-01,1976-12-01,42.88333,"MECHANICVILLE 2 S, NY US",1.0,METERS,-73.68333,NY
COOP:305233,460.2,2003-03-01,2015-11-01,42.4422,"MECKLENBURG 4 SW, NY US",0.9998,METERS,-76.7586,NY
COOP:305236,167.6,2015-08-01,2015-11-01,43.2093,"MEDINA, NY US",0.998,METERS,-78.3894,NY
COOP:305248,106.7,1965-07-01,2015-11-01,42.85023,"MELROSE 1 NE, NY US",0.9471,METERS,-73.60939,NY
COOP:305255,125.0,1987-12-01,1990-12-01,43.05,"MILTON CENTER, NY US",0.9993,METERS,-73.9,NY
COOP:305276,263.7,1961-07-01,2003-04-01,41.8,"MERRIMAN DAM, NY US",0.9622,METERS,-74.43306,NY
COOP:305283,116.1,1931-01-01,1961-03-01,41.38333,"MIDDLE BRANCH RESERV, NY US",0.9918,METERS,-73.65,NY
COOP:305291,220.1,1942-09-01,1977-09-01,42.6,"MIDDLEBURG, NY US",0.8385,METERS,-74.31667,NY
COOP:305310,213.4,1951-12-01,2013-12-01,41.4603,"MIDDLETOWN 2 NW, NY US",0.961,METERS,-74.4489,NY
COOP:305312,153.0,1974-06-01,1980-04-01,41.43333,"MIDDLETOWN 2, NY US",1.0,METERS,-74.41667,NY
COOP:305334,249.9,1942-01-01,2004-02-01,41.85528,"MILLBROOK, NY US",0.9035,METERS,-73.67,NY
COOP:305346,223.1,1941-07-01,1985-10-01,41.95,"MILLERTON, NY US",0.959,METERS,-73.51667,NY
COOP:305377,29.3,1938-01-01,2014-01-01,40.7328,"MINEOLA, NY US",0.9854,METERS,-73.6183,NY
COOP:305380,30.5,1994-09-01,2000-02-01,40.74944,"MINEOLA 1 NE, NY US",1.0,METERS,-73.62333,NY
COOP:305382,27.1,1949-03-01,1963-05-01,40.73333,"MINEOLA 1 W, NY US",0.076,METERS,-73.65,NY
COOP:305403,38.1,1948-05-01,1954-01-01,40.73333,"HEMPSTEAD MITCHELL FIELD AFB, NY US",0.7804,METERS,-73.6,NY
COOP:305426,379.5,1931-01-01,2015-11-01,41.7681,"MOHONK LAKE, NY US",1.0,METERS,-74.155,NY
COOP:305435,379.8,1948-05-01,2014-01-01,41.5705,"MONGAUP VALLEY 4 SSW, NY US",0.8797,METERS,-74.7933,NY
COOP:305438,542.5,1998-02-01,1999-12-01,43.76111,"MONTAGUE, NY US",1.0,METERS,-75.68028,NY
COOP:305441,3.0,1973-05-01,1979-07-01,41.05,"MONTAUK, NY US",0.9999,METERS,-71.95,NY
COOP:305478,228.9,1948-05-01,1948-05-01,42.71667,"MORAVIA, NY US",0.9819,METERS,-76.43333,NY
COOP:305512,512.4,1920-01-01,2015-11-01,42.8416,"MORRISVILLE 6 SW, NY US",0.8966,METERS,-75.7263,NY
COOP:305560,219.5,1944-04-01,1970-06-01,42.46667,"MOUNT LEBANON, NY US",0.8985,METERS,-73.4,NY
COOP:305597,268.2,1948-08-01,2015-11-01,42.7313,"MOUNT MORRIS 2 W, NY US",0.9728,METERS,-77.9054,NY
COOP:305604,502.9,1957-05-01,1978-06-01,42.45,"MOUNT PLEASANT FARM, NY US",0.9961,METERS,-76.36667,NY
COOP:305606,15.2,2013-01-01,2015-11-01,40.933,"MOUNT SINAI, NY US",1.0,METERS,-73.0191,NY
COOP:305635,228.6,1969-09-01,1987-03-01,42.61667,"NAPLES, NY US",0.9907,METERS,-77.4,NY
COOP:305639,225.6,1956-11-01,1998-12-01,41.56667,"NARROWSBURG 4 SE, NY US",0.9546,METERS,-75.01667,NY
COOP:305671,396.8,1948-05-01,1959-07-01,41.83333,"NEVERSINK, NY US",0.9629,METERS,-74.65,NY
COOP:305673,413.0,1954-10-01,1987-06-01,42.32449,"CATTARAUGUS, NY US",0.9288,METERS,-78.86701,NY
COOP:305675,601.1,1951-09-01,1954-03-01,42.28333,"NEW ALBION 1 W, NY US",1.0,METERS,-78.91667,NY
COOP:305676,606.6,2011-01-01,2015-11-01,42.3114,"NEW ALBION 2, NY US",1.0,METERS,-78.9082,NY
COOP:305679,131.1,1918-05-01,2015-11-01,43.04657,"NEWARK, NY US",0.9667,METERS,-77.08411,NY
COOP:305682,301.8,1954-09-01,2011-05-01,42.2463,"NEWARK VALLEY 1 N, NY US",0.0487,METERS,-76.1766,NY
COOP:305687,329.2,1936-08-01,1997-02-01,42.61667,"NEW BERLIN, NY US",0.8033,METERS,-75.33333,NY
COOP:305692,502.9,1956-05-01,1957-09-01,42.61667,"NEW BERLIN 5 WSW, NY US",0.8814,METERS,-75.43333,NY
COOP:305695,540.1,1956-05-01,1956-06-01,42.6,"NEW BERLIN 6 WSW, NY US",0.998,METERS,-75.43333,NY
COOP:305711,494.1,1940-07-01,1978-06-01,43.96667,"NEWCOMB 3 W, NY US",0.9649,METERS,-74.21667,NY
COOP:305714,502.0,1959-01-01,2015-11-01,43.9707,"NEWCOMB, NY US",0.9883,METERS,-74.222,NY
COOP:305728,46.0,1948-05-01,1948-10-25,41.63333,"NEW HACKENSACK, NY US",0.9925,METERS,-73.88333,NY
COOP:305743,586.1,1948-05-01,1985-09-01,42.23333,"NEW KINGSTON, NY US",0.9888,METERS,-74.7,NY
COOP:305751,121.9,1931-01-01,2015-11-01,43.2097,"NEW LONDON LOCK NUMBER 22, NY US",0.9568,METERS,-75.6452,NY
COOP:305759,128.0,1972-01-01,1983-03-01,41.68333,"NEW PALTZ 4 SW, NY US",1.0,METERS,-74.13333,NY
COOP:305769,516.3,1985-03-01,1995-01-01,43.2,"NEWPORT 7 NE, NY US",0.9827,METERS,-74.91667,NY
COOP:305796,6.1,1948-05-01,2011-12-01,40.59389,"NEW YORK, NY US",0.8939,METERS,-73.98083,NY
COOP:305798,6.1,1951-01-01,1952-12-01,40.6,"NEW YORK BENSONHURST, NY US",0.9993,METERS,-73.96667,NY
COOP:305799,27.1,1973-08-01,1977-01-01,40.86667,"NEW YORK BOTANICAL GARDEN, NY US",0.7067,METERS,-73.88333,NY
COOP:305801,42.7,1944-04-01,2015-11-01,40.77898,"NY CITY CENTRAL PARK, NY US",0.9988,METERS,-73.96925,NY
COOP:305803,3.4,1949-01-01,2015-11-01,40.63915,"JFK INTERNATIONAL AIRPORT, NY US",0.7821,METERS,-73.76401,NY
COOP:305804,3.0,1951-01-01,1983-12-01,40.73333,"NEW YORK LAUREL HILL, NY US",1.0,METERS,-73.93333,NY
COOP:305806,54.9,1948-05-01,1973-07-01,40.85,"NEW YORK UNIVERSITY ST, NY US",0.7636,METERS,-73.91667,NY
COOP:305811,3.4,1948-05-01,2015-11-01,40.77944,"LAGUARDIA AIRPORT, NY US",1.0,METERS,-73.88035,NY
COOP:305821,24.4,1948-05-01,1992-09-01,40.63333,"NEW YORK WESTERLEIGH, NY US",0.9473,METERS,-74.11667,NY
COOP:305840,179.2,1989-06-01,2015-11-01,43.11386,"NIAGARA FALLS INTERNATIONAL AIRPORT, NY US",0.9969,METERS,-78.93533,NY
COOP:305841,178.3,1960-05-24,2013-12-31,43.10833,"NIAGARA FALLS INTERNATIONAL AIRPORT, NY US",0.9993,METERS,-78.93806,NY
COOP:305869,70.1,1948-06-01,2004-10-01,44.80528,"NORFOLK, NY US",0.9941,METERS,-74.99972,NY
COOP:305917,399.9,1948-05-01,1948-11-01,42.51667,"NORTH COHOCTON SOIL CONSERVATION SERVICE, NY US",0.9956,METERS,-77.46667,NY
COOP:305925,271.3,1948-05-01,2015-11-01,43.6611,"NORTH CREEK 5 SE, NY US",0.8619,METERS,-73.8969,NY
COOP:305987,558.1,1931-01-01,1948-05-01,43.53333,"NORTH LAKE, NY US",0.8182,METERS,-74.95,NY
COOP:306019,6.1,1942-01-01,1953-09-01,40.9,"NORTHPORT, NY US",0.7448,METERS,-73.35,NY
COOP:306042,579.1,1948-05-01,1952-12-01,42.35,"WINDHAM NORTH SETTLE, NY US",0.9991,METERS,-74.28333,NY
COOP:306047,176.2,1982-09-01,2015-11-01,43.05734,"NORTH TONAWANDA, NY US",0.9975,METERS,-78.86171,NY
COOP:306062,240.8,1955-03-01,2015-11-01,43.1592,"NORTHVILLE, NY US",0.9684,METERS,-74.2042,NY
COOP:306085,301.4,1931-01-01,2015-11-01,42.5117,"NORWICH, NY US",0.9892,METERS,-75.5197,NY
COOP:306111,200.9,1948-05-01,1962-09-01,42.4,"OAK HILL, NY US",0.9306,METERS,-74.15,NY
COOP:306119,280.4,1948-05-01,2004-05-01,41.5,"OAKLAND VALLEY, NY US",0.9512,METERS,-74.65,NY
COOP:306138,3.7,1994-09-01,2010-01-01,40.63278,"OCEANSIDE, NY US",0.9782,METERS,-73.62694,NY
COOP:306164,85.3,1931-01-01,2015-11-01,44.7281,"OGDENSBURG 4 NE, NY US",0.9716,METERS,-75.4442,NY
COOP:306179,519.1,1948-05-01,1948-08-01,43.7,"OLD FORGE THENDARA, NY US",0.9898,METERS,-75.0,NY
COOP:306184,532.8,1948-05-01,2015-11-01,43.7026,"OLD FORGE, NY US",0.9014,METERS,-74.9838,NY
COOP:306196,432.8,1931-01-01,2015-11-01,42.0737,"OLEAN, NY US",0.9951,METERS,-78.4518,NY
COOP:306217,350.5,2010-02-01,2015-11-01,42.4604,"ONEONTA, NY US",1.0,METERS,-75.0643,NY
COOP:306224,351.1,1931-01-01,1956-06-01,42.45,"ONEONTA, NY US",0.9805,METERS,-75.06667,NY
COOP:306225,351.1,1956-07-01,1958-11-01,42.45,"ONEONTA, NY US",0.8273,METERS,-75.06667,NY
COOP:306229,353.9,1948-01-01,1969-06-01,42.45,"ONEONTA 3 SE, NY US",0.9497,METERS,-75.0,NY
COOP:306232,427.0,1971-06-01,1983-06-01,42.46667,"ONEONTA STATE UNIVERSITY, NY US",0.9656,METERS,-75.06667,NY
COOP:306275,3.0,1941-07-01,1960-12-01,41.15,"ORIENT 2 E, NY US",0.9998,METERS,-72.26667,NY
COOP:306301,9.1,1940-10-01,1959-08-01,41.15,"OSSINING SING SING, NY US",0.9868,METERS,-73.86667,NY
COOP:306314,98.8,1920-01-01,2015-11-01,43.44991,"OSWEGO, NY US",0.9939,METERS,-76.53685,NY
COOP:306322,460.9,1948-05-01,1950-03-01,42.46667,"OTEGO, NY US",0.998,METERS,-75.2,NY
COOP:306346,342.0,1932-02-01,1972-07-01,42.61667,"OVID 4 S, NY US",0.9383,METERS,-76.81667,NY
COOP:306356,246.9,1978-12-01,2015-11-01,42.0811,"OWEGO 3 WSW, NY US",0.9752,METERS,-76.3177,NY
COOP:306376,135.6,2011-01-01,2015-11-01,43.3319,"PALERMO 2 SSE, NY US",1.0,METERS,-76.2691,NY
COOP:306411,228.9,1948-05-01,1981-01-01,44.63333,"PARISHVILLE 1 WNW, NY US",0.9973,METERS,-74.83333,NY
COOP:306426,445.0,1948-05-01,1970-09-01,41.9,"PARKSTON, NY US",0.9257,METERS,-74.81667,NY
COOP:306441,16.8,1937-05-01,1997-10-01,40.79667,"PATCHOGUE 2 N, NY US",0.971,METERS,-73.00139,NY
COOP:306459,509.0,1949-07-01,1966-08-01,44.43333,"PAUL SMITHS, NY US",0.995,METERS,-74.26667,NY
COOP:306464,310.9,1956-10-01,2015-11-01,42.91142,"PAVILION 2 NE, NY US",0.7831,METERS,-77.98088,NY
COOP:306479,445.0,1948-05-01,1964-06-01,41.93333,"PEEKAMOOSE, NY US",0.9897,METERS,-74.38333,NY
COOP:306510,253.0,1927-04-01,2001-07-01,42.67111,"PENN YAN, NY US",0.8004,METERS,-77.06278,NY
COOP:306517,303.9,1984-06-01,1994-02-01,42.66667,"PENN YAN 8 W, NY US",0.9918,METERS,-77.18333,NY
COOP:306523,415.1,2011-01-01,2012-12-01,42.7215,"PERRY, NY US",0.9993,METERS,-78.0083,NY
COOP:306525,368.8,2003-12-01,2015-11-01,42.4647,"PERRYSBURG, NY US",1.0,METERS,-79.003,NY
COOP:306527,477.0,1992-05-01,1995-01-01,42.45,"PERRYSBURG 1 SW, NY US",0.9682,METERS,-79.01667,NY
COOP:306538,155.4,1938-04-01,2015-11-01,44.56551,"PERU 2 WSW, NY US",0.9828,METERS,-73.57042,NY
COOP:306546,220.1,1956-01-01,1961-02-01,42.75,"PETERSBURG, NY US",0.0545,METERS,-73.33333,NY
COOP:306549,353.9,1956-01-01,1961-01-01,42.73333,"PETERSBURG 2 SE, NY US",0.9993,METERS,-73.3,NY
COOP:306562,134.1,1956-12-01,1959-09-01,41.43333,"PHILLIPSBURG, NY US",0.9125,METERS,-74.36667,NY
COOP:306567,265.2,1948-05-01,2000-11-01,42.08639,"PHOENICIA, NY US",0.9429,METERS,-74.31417,NY
COOP:306570,323.1,2011-01-01,2015-11-01,42.0674,"PHONECIA 2 SW, NY US",1.0,METERS,-74.3356,NY
COOP:306623,527.3,1948-10-01,2012-01-01,43.4614,"PISECO, NY US",0.945,METERS,-74.5231,NY
COOP:306649,619.4,1998-09-01,2015-11-01,42.1389,"PLATTE CLOVE, NY US",0.9469,METERS,-74.0914,NY
COOP:306659,50.3,1945-11-01,1995-02-01,44.65,"PLATTSBURGH AFB, NY US",0.9883,METERS,-73.46667,NY
COOP:306660,54.3,2011-01-01,2015-11-01,44.6918,"PLATTSBURGH 1 S, NY US",1.0,METERS,-73.4556,NY
COOP:306674,97.5,1948-05-01,2000-12-01,41.13139,"PLEASANTVILLE, NY US",0.9626,METERS,-73.77583,NY
COOP:306685,390.1,1948-05-01,1997-11-01,42.61667,"PLYMOUTH, NY US",0.9756,METERS,-75.6,NY
COOP:306745,356.0,1956-07-01,2015-11-01,42.5699,"PORTAGEVILLE, NY US",0.9986,METERS,-78.0405,NY
COOP:306747,246.3,2011-01-01,2015-11-01,42.3717,"PORTLAND1 SW, NY US",1.0,METERS,-79.4866,NY
COOP:306765,36.9,1948-05-01,1965-06-01,44.05,"PORT HENRY, NY US",0.9952,METERS,-73.45,NY
COOP:306768,3.0,1953-05-01,1976-07-24,40.95,"PORT JEFFERSON, NY US",0.0832,METERS,-73.06667,NY
COOP:306774,176.8,1931-01-01,2015-11-01,41.3891,"PORT JERVIS, NY US",0.9843,METERS,-74.6905,NY
COOP:306789,435.9,1962-11-01,1968-12-01,42.03333,"PORTVILLE, NY US",0.9862,METERS,-78.33333,NY
COOP:306817,31.1,1931-01-01,1971-07-01,41.68333,"POUGHKEEPSIE, NY US",0.9918,METERS,-73.93333,NY
COOP:306820,76.5,1948-11-01,2015-11-01,41.72682,"POUGHKEEPSIE, NY US",0.9317,METERS,-73.92019,NY
COOP:306821,50.6,2011-01-01,2015-11-01,41.62574,"POUGHKEEPSIE AIRPORT, NY US",1.0,METERS,-73.88156,NY
COOP:306825,15.2,1953-02-01,2014-01-01,41.7167,"POUGHKEEPSIE 1 N, NY US",0.0345,METERS,-73.9333,NY
COOP:306831,591.9,1948-07-01,1986-10-01,42.53333,"PRATTSBURG 2 NW, NY US",0.9913,METERS,-77.3,NY
COOP:306833,438.9,1988-01-01,2002-08-01,42.51667,"PRATTSBURG, NY US",0.8864,METERS,-77.26667,NY
COOP:306839,367.9,1948-05-01,2006-12-01,42.32806,"PRATTSVILLE, NY US",0.8037,METERS,-74.44222,NY
COOP:306842,348.1,1959-01-01,1960-02-01,42.31667,"PRATTSVILLE 2, NY US",1.0,METERS,-74.43333,NY
COOP:306848,267.9,1948-05-01,1963-02-01,42.43333,"PRESTON HOLLOW, NY US",0.9889,METERS,-74.2,NY
COOP:306867,121.6,1948-01-01,2015-11-01,43.5696,"PULASKI, NY US",0.4135,METERS,-76.1163,NY
COOP:306941,542.8,1931-01-01,1952-02-01,43.81667,"RAQUETTE LAKE, NY US",0.9529,METERS,-74.66667,NY
COOP:306957,493.8,1971-01-01,2004-02-01,44.29611,"RAY BROOK, NY US",0.9825,METERS,-74.10278,NY
COOP:306965,550.5,1987-01-01,1990-12-01,43.75,"RECTORS CORNERS, NY US",1.0,METERS,-75.68333,NY
COOP:306999,622.1,1948-05-01,1959-06-01,42.31667,"RELAY, NY US",0.9852,METERS,-74.63333,NY
COOP:307024,527.9,1971-06-01,1974-11-01,42.53333,"RENSSELAERVILLE 2 NW, NY US",0.8091,METERS,-74.16667,NY
COOP:307035,91.7,1990-01-01,2012-12-01,41.8847,"RHINEBECK 4 SE, NY US",0.9637,METERS,-73.8686,NY
COOP:307069,448.1,1948-05-01,1950-09-22,42.36667,"RICHFORD, NY US",0.9998,METERS,-76.21667,NY
COOP:307070,335.9,1950-10-01,1954-06-01,42.35,"RICHFORD, NY US",0.6671,METERS,-76.2,NY
COOP:307077,159.1,1947-07-01,1952-07-01,43.56667,"RICHLAND, NY US",0.9829,METERS,-76.05,NY
COOP:307115,11.9,1931-01-01,1967-11-01,41.85,"RIFTON 1 N, NY US",1.0,METERS,-74.05,NY
COOP:307129,228.6,1956-02-01,1986-06-01,43.6,"RIVERBANK, NY US",0.8577,METERS,-73.73306,NY
COOP:307134,30.5,1938-03-01,2015-11-01,40.9619,"RIVERHEAD RES FARM, NY US",0.9893,METERS,-72.7158,NY
COOP:307167,164.3,1920-01-01,2015-11-01,43.1167,"ROCHESTER GREATER INTERNATIONAL, NY US",0.9991,METERS,-77.6767,NY
COOP:307195,313.9,1943-08-01,2007-12-01,42.38333,"ROCKDALE, NY US",0.9327,METERS,-75.4,NY
COOP:307205,387.1,1956-11-01,1963-05-01,41.5916,"ROCK HILL 3 SW, NY US",1.0,METERS,-74.6143,NY
COOP:307210,387.1,1963-06-01,2015-11-01,41.5916,"ROCK HILL 3 SW, NY US",0.9809,METERS,-74.6143,NY
COOP:307246,158.2,1948-05-01,1960-06-01,43.23333,"GRIFFISS AFB, NY US",0.9794,METERS,-75.4,NY
COOP:307260,454.2,1972-01-01,1993-03-01,41.92667,"ROSCOE, NY US",0.7766,METERS,-74.89583,NY
COOP:307262,640.1,2009-11-01,2010-12-01,41.9108,"ROSCOE 2 S, NY US",0.0137,METERS,-74.9225,NY
COOP:307274,37.2,1956-11-01,2015-11-01,41.84807,"ROSENDALE 2 E, NY US",0.914,METERS,-74.04726,NY
COOP:307291,59.4,2011-01-01,2012-12-01,42.9239,"ROUND LAKE 1 SE, NY US",0.9993,METERS,-73.7858,NY
COOP:307317,454.2,1931-01-01,1972-12-01,42.28333,"ROXBURY, NY US",0.9841,METERS,-74.56667,NY
COOP:307329,487.7,1954-02-01,2015-11-01,42.4261,"RUSHFORD, NY US",0.9799,METERS,-78.1922,NY
COOP:307348,537.1,1933-05-01,1979-10-01,44.11667,"SABATTIS 3 NE, NY US",0.9713,METERS,-74.66667,NY
COOP:307356,527.9,1956-06-01,1958-12-01,44.05,"SABATTIS WHITNEY PAR, NY US",0.9995,METERS,-74.63333,NY
COOP:307382,107.0,1955-10-01,1960-10-01,43.0,"ST JOHNSVILLE, NY US",0.9993,METERS,-74.68333,NY
COOP:307397,418.2,1948-05-01,1950-12-25,42.159,"SALAMANCA, NY US",0.8741,METERS,-78.722,NY
COOP:307398,418.2,1951-01-01,2009-01-01,42.159,"SALAMANCA, NY US",0.669,METERS,-78.722,NY
COOP:307400,431.3,1991-05-01,2008-01-01,42.1506,"SALAMANCA 2, NY US",0.9947,METERS,-78.7204,NY
COOP:307405,149.4,1942-09-01,1997-08-01,43.16667,"SALEM, NY US",0.9712,METERS,-73.31667,NY
COOP:307413,420.9,1931-01-01,1975-02-01,43.16667,"SALISBURY, NY US",0.968,METERS,-74.86667,NY
COOP:307430,144.2,2012-01-01,2012-12-01,43.6404,"SANDY CREEK, NY US",0.998,METERS,-76.0972,NY
COOP:307472,481.9,1948-02-01,1966-04-01,44.33333,"SARANAC LAKE, NY US",1.0,METERS,-74.13333,NY
COOP:307480,167.9,1941-09-01,1951-11-01,43.1,"SARATOGA SPRINGS 4 N, NY US",1.0,METERS,-73.83333,NY
COOP:307484,99.4,1955-08-01,2015-11-01,43.04121,"SARATOGA SPRINGS 4 SW, NY US",0.9889,METERS,-73.82109,NY
COOP:307497,60.7,1931-01-01,1991-09-01,40.98333,"SCARSDALE, NY US",0.9644,METERS,-73.8,NY
COOP:307498,67.1,1971-01-01,1986-04-01,40.98333,"SCARSDALE 2 ESE, NY US",0.0243,METERS,-73.76667,NY
COOP:307505,39.9,1948-05-01,1965-06-01,42.9,"SCHAGHTICOKE 1 W, NY US",0.9369,METERS,-73.6,NY
COOP:307513,67.1,1931-01-01,1985-11-01,42.83333,"SCHENECTADY, NY US",0.9832,METERS,-73.91667,NY
COOP:307514,109.7,1988-08-01,1997-02-01,42.8,"SCHENECTADY, NY US",0.9099,METERS,-73.91667,NY
COOP:307520,223.7,2011-01-01,2015-11-01,42.665,"SCHOHARIE, NY US",1.0,METERS,-74.3036,NY
COOP:307524,262.1,1948-08-01,1967-02-01,43.83333,"SCHROON LAKE, NY US",0.6324,METERS,-73.76667,NY
COOP:307532,284.1,1948-05-01,1978-11-01,44.01667,"SCHROON RIVER 4 N, NY US",0.8255,METERS,-73.7,NY
COOP:307544,34.1,1931-01-01,1963-07-01,43.11667,"SCHUYLERVILLE LOCK 5, NY US",0.9617,METERS,-73.58333,NY
COOP:307549,36.6,1948-05-01,2014-01-01,43.1131,"SCHUYLERVILLE, NY US",0.9512,METERS,-73.5775,NY
COOP:307557,445.0,1931-02-01,1975-08-01,42.16667,"WELLSVILLE 4 NNW, NY US",0.9047,METERS,-77.98333,NY
COOP:307568,70.1,1931-01-01,1963-08-01,42.81667,"SCOTIA, NY US",0.9516,METERS,-73.98333,NY
COOP:307587,30.5,1994-09-01,2005-03-01,40.85056,"SEA CLIFF, NY US",0.9844,METERS,-73.64833,NY
COOP:307596,586.1,1948-05-01,1970-12-01,42.05,"SEAGER, NY US",0.9962,METERS,-74.55,NY
COOP:307633,12.2,1931-01-01,2015-11-01,40.9586,"SETAUKET STRONG, NY US",0.9137,METERS,-73.1047,NY
COOP:307659,249.9,1931-01-01,1953-09-01,42.8,"SHARON SPRINGS 1 N, NY US",0.9414,METERS,-74.6,NY
COOP:307664,415.1,1931-01-01,1951-11-01,42.78333,"SHARON SPRINGS 2 SW, NY US",0.9124,METERS,-74.66667,NY
COOP:307705,333.8,1931-01-01,2015-11-01,42.6773,"SHERBURNE, NY US",0.9902,METERS,-75.5066,NY
COOP:307713,475.5,1951-10-01,2005-07-01,42.15722,"SHERMAN, NY US",0.983,METERS,-79.59361,NY
COOP:307721,155.4,1953-01-01,2008-09-01,41.95,"SHOKAN BROWN STATION, NY US",0.9627,METERS,-74.2,NY
COOP:307742,140.8,1950-03-01,1971-12-01,41.3325,"SHRUB OAK, NY US",0.9883,METERS,-73.837,NY
COOP:307749,508.1,2011-01-01,2015-11-01,42.7058,"SILVER SPRINGS 3 N, NY US",1.0,METERS,-78.0937,NY
COOP:307750,182.9,1985-12-01,2007-08-01,42.53806,"SILVER CREEK, NY US",0.9655,METERS,-79.16991,NY
COOP:307772,493.8,1959-09-01,2003-07-01,42.27861,"SINCLAIRVILLE, NY US",0.9962,METERS,-79.26556,NY
COOP:307780,266.7,1900-02-01,2015-11-01,42.9461,"SKANEATELES, NY US",0.9058,METERS,-76.4313,NY
COOP:307799,807.7,1948-05-01,2012-12-01,42.0167,"SLIDE MOUNTAIN, NY US",0.9806,METERS,-74.4167,NY
COOP:307818,43.3,1931-01-01,2010-06-01,43.3519,"SMITHS BASIN, NY US",0.8753,METERS,-73.4962,NY
COOP:307830,329.2,1948-05-01,2006-12-01,42.38333,"SMITHVILLE FLATS, NY US",0.9512,METERS,-75.81667,NY
COOP:307842,135.3,1931-01-01,2015-11-01,43.2359,"SODUS 1 W, NY US",0.8803,METERS,-77.0841,NY
COOP:307864,189.0,1948-05-01,1950-07-01,42.68333,"SONYEA, NY US",0.9999,METERS,-77.85,NY
COOP:307906,189.0,1968-11-01,1971-08-01,43.08333,"SOUTH BYRON, NY US",0.7948,METERS,-78.06667,NY
COOP:307918,476.1,1948-05-01,1949-05-01,42.18333,"SOUTH CANISTEO, NY US",0.9992,METERS,-77.55,NY
COOP:307944,244.1,1931-01-01,1977-12-01,44.26667,"SOUTH EDWARDS 1 E, NY US",0.9964,METERS,-75.2,NY
COOP:307998,430.1,1948-05-01,1953-01-01,42.53333,"SOUTH NEW BERLIN, NY US",0.8536,METERS,-75.43333,NY
COOP:308003,476.1,1956-04-01,1958-05-01,42.58333,"SOUTH NEW BERLIN 4 N, NY US",0.049,METERS,-75.43333,NY
COOP:308006,537.1,1956-04-01,1957-09-01,42.6,"SOUTH NEW BERLIN 5 N, NY US",0.9998,METERS,-75.43333,NY
COOP:308036,299.0,1961-12-01,1965-05-01,43.78333,"SOUTH SCHROON, NY US",1.0,METERS,-73.8,NY
COOP:308058,331.9,1931-10-01,1982-08-01,42.71667,"S WALES EMERY PARK, NY US",0.9607,METERS,-78.6,NY
COOP:308072,18.0,1948-05-01,1953-01-01,41.03333,"SPARKILL, NY US",0.9512,METERS,-73.93333,NY
COOP:308080,530.4,1948-09-01,2000-11-01,43.5,"SPECULATOR, NY US",0.6029,METERS,-74.36167,NY
COOP:308086,356.6,1997-05-01,2007-05-01,42.21667,"SPENCER 1 NE, NY US",1.0,METERS,-76.46667,NY
COOP:308088,320.0,1943-08-01,1994-01-01,42.25,"SPENCER 2 N, NY US",0.9471,METERS,-76.5,NY
COOP:308089,323.1,1956-04-01,1961-01-01,42.2,"SPENCER 2 WSW, NY US",0.9991,METERS,-76.53333,NY
COOP:308090,317.0,1956-01-01,1956-07-01,42.2,"SPENCER 2 W, NY US",1.0,METERS,-76.53333,NY
COOP:308091,317.0,1957-05-01,1961-01-01,42.2,"SPENCER 2 W, NY US",0.9983,METERS,-76.53333,NY
COOP:308092,384.0,1956-01-01,1961-01-31,42.16667,"SPENCER 4 SW, NY US",0.0734,METERS,-76.51667,NY
COOP:308094,430.1,1956-04-01,1957-04-26,42.23333,"SPENCER 4 NW, NY US",0.0376,METERS,-76.53333,NY
COOP:308095,313.9,1957-04-01,1960-06-01,42.23333,"SPENCER 2, NY US",0.0519,METERS,-76.5,NY
COOP:308096,192.0,1942-09-01,1959-05-01,42.33333,"SPENCERTOWN, NY US",0.9852,METERS,-73.55,NY
COOP:308104,118.9,1931-01-01,1975-08-01,43.23333,"SPIER FALLS, NY US",0.9981,METERS,-73.75,NY
COOP:308130,136.9,1948-05-01,1953-01-01,41.11667,"SPRING VALLEY, NY US",0.9024,METERS,-74.05,NY
COOP:308131,459.6,2012-01-01,2013-12-01,42.5572,"SPRINGVILLE 4 NW, NY US",0.9993,METERS,-78.739,NY
COOP:308132,515.4,2014-01-01,2015-11-01,42.5497,"SPRINGVILLE 5 NE, NY US",1.0,METERS,-78.5767,NY
COOP:308138,366.1,1948-05-01,1959-12-01,43.13333,"SPRITE CREEK, NY US",0.9855,METERS,-74.66667,NY
COOP:308152,278.0,1931-10-01,1967-09-01,42.98333,"STAFFORD, NY US",0.9931,METERS,-78.08333,NY
COOP:308160,542.2,1948-05-01,2004-09-01,42.4,"STAMFORD, NY US",0.9822,METERS,-74.63333,NY
COOP:308223,237.7,1980-01-01,1985-04-01,41.23306,"STERLING FOREST, NY US",0.0105,METERS,-74.23667,NY
COOP:308232,177.1,1948-06-01,1964-02-01,41.5,"STEWART FIELD, NY US",1.0,METERS,-74.1,NY
COOP:308240,470.0,1948-05-01,1958-10-01,43.13333,"STEWARTS LANDING, NY US",0.9443,METERS,-74.6,NY
COOP:308248,515.1,1931-01-01,2015-11-01,43.8999,"STILLWATER RESERVOIR, NY US",0.9824,METERS,-75.0367,NY
COOP:308290,76.2,1978-04-01,2010-10-01,43.83889,"STONY POINT 2 E, NY US",0.0298,METERS,-76.2675,NY
COOP:308304,278.9,1990-08-01,2007-07-01,41.53333,"STORMVILLE, NY US",1.0,METERS,-73.73333,NY
COOP:308317,86.9,2000-12-01,2006-07-01,42.46083,"STUYVESANT 5 N, NY US",0.9562,METERS,-73.75,NY
COOP:308321,153.0,1940-07-01,1955-08-01,41.11667,"SUFFERN, NY US",0.7417,METERS,-74.11667,NY
COOP:308322,82.3,1956-05-01,1999-02-01,41.11278,"SUFFERN, NY US",0.8541,METERS,-74.15722,NY
COOP:308338,625.1,1948-05-01,1949-10-01,42.58333,"SUMMIT, NY US",0.998,METERS,-74.58333,NY
COOP:308352,305.1,1948-05-01,1959-06-01,41.88333,"SUNDOWN, NY US",0.9778,METERS,-74.46667,NY
COOP:308383,125.9,1948-01-01,2015-11-01,43.1111,"SYRACUSE HANCOCK INTERNATIONAL AIRPORT, NY US",1.0,METERS,-76.1038,NY
COOP:308386,173.4,2001-09-01,2015-11-01,43.0344,"SUNY ESF SYRACUSE, NY US",0.6317,METERS,-76.1344,NY
COOP:308403,548.9,1948-05-01,1958-12-01,42.18333,"TANNERSVILLE SEWAGE, NY US",0.9997,METERS,-74.15,NY
COOP:308405,586.1,1959-01-01,1974-10-01,42.2,"TANNERSVILLE 2 E, NY US",0.8421,METERS,-74.1,NY
COOP:308406,594.4,1976-12-01,2014-01-01,42.1625,"TANNERSVILLE 2 SE, NY US",0.0371,METERS,-74.1572,NY
COOP:308432,420.9,1948-05-01,1959-05-01,42.13333,"TERRY CLOVE, NY US",0.8873,METERS,-74.9,NY
COOP:308455,110.0,1948-05-01,1979-09-01,44.27543,"THERESA 4 NW, NY US",0.9867,METERS,-75.83689,NY
COOP:308498,493.8,1948-05-01,2013-01-01,42.20722,"THURSTON, NY US",0.5793,METERS,-77.33056,NY
COOP:308503,49.1,1949-11-01,1972-12-01,43.85,"TICONDEROGA, NY US",0.946,METERS,-73.41667,NY
COOP:308506,64.0,1941-04-01,1980-12-01,43.88333,"TICONDEROGA 3 NE, NY US",0.4067,METERS,-73.4,NY
COOP:308507,96.0,1961-01-01,2014-01-01,43.8468,"TICONDEROGA B MILL, NY US",0.0332,METERS,-73.4281,NY
COOP:308512,121.9,1948-11-01,1954-01-01,41.4,"TILLY FOSTER, NY US",0.7283,METERS,-73.65,NY
COOP:308523,82.0,1948-05-01,1961-03-01,41.33333,"TITICUS, NY US",0.9742,METERS,-73.65,NY
COOP:308578,243.8,1931-01-01,2015-11-01,43.2761,"TRENTON FALLS, NY US",0.9313,METERS,-75.1566,NY
COOP:308586,91.4,1931-01-01,2015-08-01,42.9464,"TRIBES HILL, NY US",0.9134,METERS,-74.2886,NY
COOP:308594,521.2,1948-05-01,2003-03-01,42.06667,"TROUPSBURG 4 NE, NY US",0.9985,METERS,-77.48333,NY
COOP:308600,4.6,1956-07-01,2015-11-01,42.7511,"TROY LOCK AND DAM, NY US",0.9846,METERS,-73.6851,NY
COOP:308611,353.9,1953-09-01,1977-01-01,42.71667,"TRUXTON, NY US",0.9358,METERS,-76.01667,NY
COOP:308614,427.0,1948-05-01,1951-11-01,42.76667,"TRUXTON 4 N, NY US",0.998,METERS,-76.03333,NY
COOP:308619,534.0,1948-05-01,1951-11-01,42.78333,"TRUXTON 5 N, NY US",0.6997,METERS,-76.03333,NY
COOP:308625,396.2,1979-05-01,1995-02-01,42.83333,"TULLY 4 NE, NY US",0.9838,METERS,-76.03333,NY
COOP:308627,578.8,1967-01-01,2007-08-01,42.76028,"TULLY HEIBERG FOREST, NY US",0.9918,METERS,-76.08028,NY
COOP:308631,512.1,1931-01-01,2015-11-01,44.2307,"TUPPER LAKE SUNMOUNT, NY US",0.9657,METERS,-74.4382,NY
COOP:308635,402.9,1966-04-01,1978-11-01,43.65,"TURIN 1 N, NY US",0.9736,METERS,-75.41667,NY
COOP:308665,310.9,1943-08-01,1977-12-01,42.31667,"UNADILLA, NY US",0.8934,METERS,-75.31667,NY
COOP:308670,451.1,1978-01-01,2014-12-01,42.3541,"UNADILLA 2 N, NY US",0.9348,METERS,-75.3241,NY
COOP:308720,22.9,1948-08-01,2014-01-01,40.87056,"UPTON, NY US",0.9216,METERS,-72.89139,NY
COOP:308733,125.0,1931-01-01,1948-11-01,43.11667,"UTICA HARBOR POINT, NY US",0.9768,METERS,-75.23333,NY
COOP:308737,216.7,1950-12-01,2006-11-01,43.145,"UTICA ONEIDA CO AIRPORT, NY US",0.9762,METERS,-75.38389,NY
COOP:308738,163.1,1945-11-01,1950-12-29,43.16667,"UTICA CAA AIRPORT, NY US",0.9512,METERS,-75.31667,NY
COOP:308739,176.8,1948-04-01,1991-12-01,43.08333,"UTICA, NY US",0.9122,METERS,-75.2,NY
COOP:308742,318.8,1992-01-01,1997-04-01,43.0,"UTICA 7 SSW, NY US",1.0,METERS,-75.26667,NY
COOP:308746,91.4,1971-01-01,2009-12-01,42.4333,"VALATIE 1 N, NY US",0.8825,METERS,-73.6833,NY
COOP:308749,113.1,1948-05-01,1961-03-01,41.06667,"VALHALLA 2 E, NY US",0.8193,METERS,-73.76667,NY
COOP:308773,33.5,1977-06-01,1993-01-01,40.9,"VANDERBILT MUSEUM, NY US",0.8783,METERS,-73.36667,NY
COOP:308831,243.5,1939-01-01,1976-12-01,42.1,"VESTAL 2, NY US",0.6776,METERS,-76.05,NY
COOP:308833,454.2,1977-01-01,1985-07-01,42.05,"VESTAL, NY US",1.0,METERS,-76.05,NY
COOP:308839,179.2,1948-05-01,2014-01-01,43.0044,"VICTOR 2 NW, NY US",0.3442,METERS,-77.4473,NY
COOP:308870,98.1,1931-01-01,1948-10-01,42.7,"VOORHEESVILLE DEPOT, NY US",0.6635,METERS,-73.95,NY
COOP:308902,121.9,1931-01-01,1959-06-01,41.56667,"WALDEN 2 NE, NY US",1.0,METERS,-74.16667,NY
COOP:308906,115.8,1972-07-01,2015-11-01,41.5514,"WALDEN 1 ESE, NY US",0.9692,METERS,-74.1628,NY
COOP:308910,345.9,1948-06-01,2015-11-01,42.7392,"WALES, NY US",0.4734,METERS,-78.5878,NY
COOP:308924,488.0,1948-05-01,1950-09-01,42.43333,"WALLACE SOIL CONSERVATION SERVICE, NY US",0.9996,METERS,-77.46667,NY
COOP:308932,451.1,1997-01-01,2015-11-01,42.1847,"WALTON 2, NY US",0.9914,METERS,-75.1455,NY
COOP:308935,548.9,1945-11-01,1956-07-01,42.23333,"WALTON 5 NE, NY US",1.0,METERS,-75.08333,NY
COOP:308936,378.0,1956-08-01,1997-08-01,42.16667,"WALTON, NY US",0.9877,METERS,-75.13333,NY
COOP:308944,460.2,1920-01-01,2013-09-01,44.148,"WANAKENA RANGER SCHOOL, NY US",0.9722,METERS,-74.9003,NY
COOP:308946,3.0,1976-01-01,2015-11-01,40.655,"WANTAGH CEDAR CREEK, NY US",0.9416,METERS,-73.5053,NY
COOP:308949,34.7,1931-01-01,1950-11-01,41.65,"WAPPINGERS FALLS, NY US",0.9833,METERS,-73.86667,NY
COOP:308959,237.7,1948-05-01,1982-10-01,43.55,"WARRENSBURG 4 NW, NY US",0.8864,METERS,-73.8,NY
COOP:308962,554.7,1952-11-01,2015-11-01,42.6855,"WARSAW 6 SW, NY US",0.9697,METERS,-78.2202,NY
COOP:308967,164.9,1931-01-01,1974-12-01,41.26667,"WARWICK, NY US",0.9489,METERS,-74.36667,NY
COOP:308987,137.8,1923-04-01,2015-11-01,42.9013,"WATERLOO, NY US",0.9137,METERS,-76.8641,NY
COOP:309000,151.5,1920-01-01,2015-11-01,43.9761,"WATERTOWN, NY US",0.9913,METERS,-75.8753,NY
COOP:309005,96.9,1949-05-01,2015-11-01,43.98867,"WATERTOWN AIRPORT, NY US",0.9737,METERS,-76.02623,NY
COOP:309020,139.9,1965-08-01,1977-12-01,42.36667,"WATKINS GLEN, NY US",0.2684,METERS,-76.86667,NY
COOP:309021,244.1,1970-09-01,1976-10-01,42.4,"WATKINS GLEN 2 NW, NY US",0.8646,METERS,-76.9,NY
COOP:309047,257.6,1988-11-01,2015-11-01,42.0019,"WAVERLY, NY US",0.8863,METERS,-76.525,NY
COOP:309049,83.8,2011-01-01,2015-11-01,43.2419,"WEBSTER 2 NE, NY US",1.0,METERS,-77.3882,NY
COOP:309055,86.9,1975-01-01,2005-06-01,44.3565,"WELLESLEY ISLAND, NY US",0.9728,METERS,-75.9285,NY
COOP:309072,460.2,1955-12-01,2015-11-01,42.1173,"WELLSVILLE, NY US",0.9593,METERS,-77.9475,NY
COOP:309076,445.0,1975-07-01,1998-02-01,42.16667,"WELLSVILLE 4 NNW, NY US",0.9816,METERS,-77.98333,NY
COOP:309087,598.0,1948-01-01,1950-03-01,42.3,"WEST ALMOND, NY US",0.6662,METERS,-77.88333,NY
COOP:309088,531.0,1950-01-01,1955-08-01,42.28333,"WEST ALMOND 3 W, NY US",0.998,METERS,-77.93333,NY
COOP:309089,301.8,2015-07-01,2015-11-01,42.8846,"WEST BLOOMFIELD 1 S, NY US",0.9947,METERS,-77.534,NY
COOP:309110,153.0,1948-05-01,1952-09-01,41.41667,"WEST BRANCH, NY US",0.9618,METERS,-73.7,NY
COOP:309117,27.4,1980-01-01,1990-06-01,40.73333,"WESTBURY, NY US",1.0,METERS,-73.6,NY
COOP:309125,323.1,1953-08-01,1982-03-01,42.21667,"WEST CAMERON, NY US",1.0,METERS,-77.41667,NY
COOP:309140,111.9,1974-01-01,2015-11-01,41.06236,"WESTCHESTER CO AIRPORT, NY US",0.7655,METERS,-73.70463,NY
COOP:309178,353.9,1948-05-01,1959-06-01,42.51667,"WESTERLO, NY US",0.8359,METERS,-74.05,NY
COOP:309189,215.5,1941-07-01,2003-02-01,42.29556,"WESTFIELD 2 SSE, NY US",0.9987,METERS,-79.58556,NY
COOP:309229,661.4,1948-05-01,2011-04-01,42.1454,"WEST JASPER, NY US",0.8048,METERS,-77.5661,NY
COOP:309237,458.1,1948-05-01,1959-06-01,42.2,"WEST KILL, NY US",0.9778,METERS,-74.38333,NY
COOP:309248,172.2,2009-01-01,2015-11-01,43.1595,"WESTMORELAND 4 N, NY US",1.0,METERS,-75.4611,NY
COOP:309250,134.1,1955-07-01,1986-12-01,43.03333,"WEST MILTON, NY US",0.9893,METERS,-73.93333,NY
COOP:309270,57.9,1990-01-01,1998-10-01,41.08333,"WEST NYACK, NY US",1.0,METERS,-73.96667,NY
COOP:309292,97.5,1931-01-01,2015-11-01,41.3906,"WEST POINT, NY US",0.9686,METERS,-73.9608,NY
COOP:309303,195.1,1965-08-01,2010-06-01,42.61667,"WEST SAND LAKE 2 S, NY US",0.9815,METERS,-73.6,NY
COOP:309307,200.9,1978-04-01,1987-02-01,42.83333,"WEST SENECA 1 NE, NY US",0.9816,METERS,-78.75,NY
COOP:309311,299.0,1948-05-01,1959-06-01,41.95,"WEST SHOKAN 3 SW, NY US",0.9703,METERS,-74.31667,NY
COOP:309374,226.2,1948-05-01,2014-01-01,44.8418,"WHIPPLEVILLE 2 NW, NY US",0.9756,METERS,-74.2828,NY
COOP:309389,36.3,1931-01-01,2015-11-01,43.5575,"WHITEHALL, NY US",0.9608,METERS,-73.4011,NY
COOP:309400,45.7,1948-05-01,1992-03-01,41.01667,"WHITE PLAINS MAPLE M, NY US",0.9512,METERS,-73.73333,NY
COOP:309405,111.9,1948-06-01,1973-12-01,41.06236,"WESTCHESTER CO AIRPORT, NY US",0.9413,METERS,-73.70463,NY
COOP:309413,241.1,1948-05-01,1961-03-01,41.5,"WHITE POND, NY US",0.9225,METERS,-73.75,NY
COOP:309425,661.4,1954-02-01,2015-11-01,42.05983,"WHITESVILLE 1 N, NY US",0.9852,METERS,-77.75539,NY
COOP:309437,317.0,1933-04-01,2001-09-01,42.33333,"WHITNEY POINT LAKE, NY US",0.8978,METERS,-75.96667,NY
COOP:309439,454.2,1974-07-01,1979-07-01,42.33333,"WHITNEY POINT 5 E, NY US",0.8196,METERS,-75.86667,NY
COOP:309442,317.0,1948-05-01,2015-11-01,42.3419,"WHITNEY POINT DAM, NY US",0.1148,METERS,-75.9653,NY
COOP:309480,214.9,2003-02-01,2005-02-01,43.37694,"WILLIAMSTOWN, NY US",0.9223,METERS,-75.92056,NY
COOP:309495,54.9,1992-02-01,2011-12-01,44.38417,"WILLSBORO 1 N, NY US",0.908,METERS,-73.38194,NY
COOP:309499,615.7,2015-04-01,2015-11-01,44.3931,"WILMINGTON 2 W, NY US",0.998,METERS,-73.8589,NY
COOP:309507,106.7,1941-12-01,1997-02-01,43.25,"WILSON 4 S, NY US",0.9684,METERS,-78.83333,NY
COOP:309512,579.1,1953-01-01,1959-06-01,42.35,"WINDHAM NORTH SETTLE, NY US",0.9881,METERS,-74.28333,NY
COOP:309514,458.1,1960-07-01,1969-01-01,42.3,"WINDHAM, NY US",0.9994,METERS,-74.25,NY
COOP:309516,512.1,1948-05-01,2008-09-01,42.3031,"WINDHAM 3 E, NY US",0.8248,METERS,-74.2011,NY
COOP:309522,286.2,1977-06-01,2008-06-01,42.0599,"WINDSOR 2 SE, NY US",0.0211,METERS,-75.6138,NY
COOP:309533,350.8,1940-07-01,1995-01-01,42.51667,"WISCOY 1 E, NY US",0.948,METERS,-78.05,NY
COOP:309544,121.9,1941-07-01,1996-10-01,43.25,"WOLCOTT 3 NW, NY US",0.9412,METERS,-76.86667,NY
COOP:309571,556.3,1933-07-01,1942-02-01,42.033333,"WOODHULL, NY US",0.7501,METERS,-77.483333,NY
COOP:309576,42.7,1948-05-01,1990-01-01,41.01667,"WOODLANDS ARDSLEY, NY US",0.878,METERS,-73.85,NY
COOP:309593,472.4,2014-01-01,2015-11-01,42.8206,"WYOMING 3 W, NY US",1.0,METERS,-78.1481,NY
COOP:309660,128.0,1942-01-01,1950-01-01,41.26667,"YORKTOWN HEIGHTS, NY US",0.9895,METERS,-73.76667,NY
COOP:309670,204.2,1967-06-01,2014-01-01,41.2664,"YORKTOWN HEIGHTS 1 W, NY US",0.9963,METERS,-73.7975,NY
COOP:309690,85.6,2004-05-01,2015-11-01,43.26818,"YOUNGSTOWN 2 NE, NY US",1.0,METERS,-79.00922,NY
COOP:360313,484.6,1948-01-01,1981-10-28,42.0,"AUSTINBURG 2 W, NY US",0.8766,METERS,-77.53333,NY
COOP:360313,484.6,1948-01-01,1981-10-28,42.0,"AUSTINBURG 2 W, NY US",0.8766,METERS,-77.53333,PA
COOP:364873,281.0,1931-01-01,1974-08-01,41.96667,"LAWRENCEVILLE 2 S, PA US",0.9829,METERS,-77.13333,NY
COOP:364873,281.0,1931-01-01,1974-08-01,41.96667,"LAWRENCEVILLE 2 S, PA US",0.9829,METERS,-77.13333,PA
COOP:365470,139.9,1931-01-01,2011-12-01,41.3913,"MATAMORAS, PA US",0.9445,METERS,-74.7173,NY
COOP:365470,139.9,1931-01-01,2011-12-01,41.3913,"MATAMORAS, PA US",0.9445,METERS,-74.7173,PA
COOP:368068,469.4,1976-08-01,1991-08-01,42.0,"SHINGLEHOUSE 2 NNW, NY US",0.029,METERS,-78.2,NY
GHCND:US1NYAB0001,445.0,2007-11-01,2020-01-11,42.66696,"ALTAMONT 2.7 SSW, NY US",1.0,METERS,-74.05088,NY
GHCND:US1NYAB0006,88.7,2008-09-01,2019-08-12,42.719762,"SCHENECTADY 5.6 SSW, NY US",1.0,METERS,-73.930371,NY
GHCND:US1NYAB0010,488.3,2008-10-01,2020-01-11,42.545481,"RENSSELAERVILLE 2.1 NNW, NY US",1.0,METERS,-74.147484,NY
GHCND:US1NYAB0016,104.2,2009-06-01,2009-12-12,42.75903,"LATHAM 1.1 NNE, NY US",0.9956,METERS,-73.73702,NY
GHCND:US1NYAB0017,65.5,2009-07-01,2016-08-26,42.667763,"ALBANY 0.7 E, NY US",0.9819,METERS,-73.785573,NY
GHCND:US1NYAB0021,79.2,2010-01-01,2020-01-11,42.6918,"NWS ALBANY, NY US",0.9168,METERS,-73.83109,NY
GHCND:US1NYAB0022,87.8,2010-01-01,2016-09-19,42.703831,"COLONIE 1.6 SE, NY US",0.5667,METERS,-73.811846,NY
GHCND:US1NYAB0023,78.0,2010-01-01,2020-01-11,42.660193,"ALBANY 0.7 SW, NY US",1.0,METERS,-73.810343,NY
GHCND:US1NYAB0025,94.8,2010-01-01,2014-06-17,42.672146,"VOORHEESVILLE 2.0 NNE, NY US",0.8773,METERS,-73.914022,NY
GHCND:US1NYAB0028,120.1,2011-05-01,2015-07-01,42.724277,"LATHAM 1.5 SSW, NY US",0.9996,METERS,-73.757013,NY
GHCND:US1NYAB0029,64.9,2012-07-01,2013-11-24,42.6193148642778,"DELMAR 0.8 ESE, NY US",0.8226,METERS,-73.8202741742134,NY
GHCND:US1NYAB0032,54.6,2013-03-01,2020-01-11,42.575395,"GLENMONT 2.5 SW, NY US",0.9996,METERS,-73.799503,NY
GHCND:US1NYAB0037,18.0,2016-07-18,2019-09-05,42.768644,"COHOES 0.9 ESE, NY US",0.7118,METERS,-73.691117,NY
GHCND:US1NYAB0039,66.4,2014-04-19,2019-10-04,42.662448,"ALBANY 0.5 ESE, NY US",0.5772,METERS,-73.790699,NY
GHCND:US1NYAB0041,64.9,2017-09-05,2020-01-11,42.664086,"ALBANY 0.3 ESE, NY US",0.539,METERS,-73.793493,NY
GHCND:US1NYAB0042,219.8,2018-02-19,2018-09-18,42.504078,"COEYMANS HOLLOW 2.1 N, NY US",0.669,METERS,-73.898102,NY
GHCND:US1NYAB0046,50.6,2018-10-13,2020-01-09,42.495718,"RAVENA 1.4 NNW, NY US",0.7706,METERS,-73.821758,NY
GHCND:US1NYAB0047,63.7,2019-03-25,2020-01-11,42.61013,"DELMAR 1.0 S, NY US",0.9044,METERS,-73.83172,NY
GHCND:US1NYAB0054,382.8,2019-05-28,2020-01-11,42.681822,"ALTAMONT 2.9 SW, NY US",0.9956,METERS,-74.083269,NY
GHCND:US1NYAL0002,555.7,2009-07-01,2020-01-07,42.27055,"WEST ALMOND 3.6 SW, NY US",0.9998,METERS,-77.94195,NY
GHCND:US1NYAL0003,478.5,2011-06-01,2011-11-16,42.2495317,"CUBA 2.5 NNW, NY US",0.998,METERS,-78.2998441,NY
GHCND:US1NYAL0007,452.0,2013-03-01,2014-08-24,42.1215019226074,"WELLSVILLE 0.3 W, NY US",0.998,METERS,-77.9533615112305,NY
GHCND:US1NYAL0009,457.5,2016-05-09,2018-07-25,42.2092552185059,"FRIENDSHIP 0.6 ENE, NY US",0.1374,METERS,-78.1316528320313,NY
GHCND:US1NYBM0001,280.7,2007-08-01,2020-01-09,42.193,"CHENANGO FORKS 3.0 SE, NY US",0.58,METERS,-75.848,NY
GHCND:US1NYBM0002,231.6,2007-11-01,2009-04-09,42.233333,"FENTON 2.4 NE, NY US",0.5564,METERS,-75.783333,NY
GHCND:US1NYBM0004,317.0,2004-01-01,2020-01-09,42.02958,"ENDICOTT 5.2 SSE, NY US",0.9933,METERS,-76.02129,NY
GHCND:US1NYBM0007,303.0,1998-06-17,2020-01-09,42.0493,"VESTAL 2.8 SSE, NY US",0.7292,METERS,-76.02883,NY
GHCND:US1NYBM0010,348.1,2006-11-01,2017-10-03,42.35,"WHITNEY POINT 3.7 ENE, NY US",1.0,METERS,-75.9,NY
GHCND:US1NYBM0011,412.1,2004-01-01,2017-09-09,42.073508,"BINGHAMTON 1.8 SW, NY US",1.0,METERS,-75.929583,NY
GHCND:US1NYBM0014,385.9,2007-09-01,2020-01-11,42.30837,"WHITNEY POINT 1.7 SSE, NY US",1.0,METERS,-75.95695,NY
GHCND:US1NYBM0019,425.8,2008-07-01,2008-12-19,42.344220355786,"TRIANGLE 0.9 ENE, NY US",0.9925,METERS,-75.8635354042053,NY
GHCND:US1NYBM0021,507.8,2009-01-01,2020-01-08,42.00992,"WINDSOR 8.0 SE, NY US",1.0,METERS,-75.51417,NY
GHCND:US1NYBM0023,268.5,2011-04-01,2019-10-17,42.197155,"CHENANGO BRIDGE 2.5 NE, NY US",0.6784,METERS,-75.834663,NY
GHCND:US1NYBM0024,259.4,2011-08-01,2020-01-11,42.109808,"BINGHAMTON 1.3 ENE, NY US",0.9997,METERS,-75.885822,NY
GHCND:US1NYBM0026,293.5,2013-09-01,2015-08-21,42.112689,"ENDWELL 0.6 ESE, NY US",1.0,METERS,-76.012959,NY
GHCND:US1NYBM0032,272.2,2013-08-01,2019-11-14,42.14146,"BINGHAMTON 2.9 NNE, NY US",0.6875,METERS,-75.889,NY
GHCND:US1NYBM0034,423.7,2014-04-01,2020-01-09,42.08258,"VESTAL 3.2 E, NY US",0.9993,METERS,-75.99122,NY
GHCND:US1NYBM0037,272.2,2014-05-01,2015-09-07,42.140532,"BINGHAMTON 2.7 N, NY US",0.9819,METERS,-75.91161,NY
GHCND:US1NYBM0040,264.6,2015-04-01,2017-12-11,42.079591,"VESTAL 0.4 SSE, NY US",0.998,METERS,-76.051015,NY
GHCND:US1NYBM0051,363.6,2018-04-20,2020-01-06,42.1356,"ENDICOTT 2.8 NNE, NY US",0.2058,METERS,-76.0438,NY
GHCND:US1NYBM0052,271.6,2019-04-27,2020-01-11,42.14098,"BINGHAMTON 2.9 NNE, NY US",0.9939,METERS,-75.88936,NY
GHCND:US1NYBX0025,14.9,2019-03-25,2019-10-17,40.8598559,"BRONX 1.5 NE, NY US",0.998,METERS,-73.8456936,NY
GHCND:US1NYCB0001,90.8,2007-08-01,2020-01-11,42.133493,"HUDSON 8.2 S, NY US",0.9998,METERS,-73.767857,NY
GHCND:US1NYCB0006,100.9,2012-10-01,2015-02-07,42.4727,"NORTH CHATHAM 0.6 W, NY US",1.0,METERS,-73.6439,NY
GHCND:US1NYCB0008,73.8,2013-04-01,2020-01-09,42.1330757,"LIVINGSTON 0.7 SSW, NY US",1.0,METERS,-73.7853733,NY
GHCND:US1NYCB0009,377.0,2015-12-15,2020-01-09,42.261653,"HILLSDALE 5.8 S, NY US",0.4533,METERS,-73.541606,NY
GHCND:US1NYCB0016,100.9,2019-03-15,2020-01-11,42.456554,"VALATIE 2.9 N, NY US",0.9961,METERS,-73.668121,NY
GHCND:US1NYCL0002,143.3,2008-11-01,2012-02-23,44.623122,"SCHUYLER FALLS 0.2 NNW, NY US",0.9261,METERS,-73.560192,NY
GHCND:US1NYCL0005,30.5,2009-02-01,2010-12-01,44.9848,"ROUSES POINT 0.5 SSE, NY US",0.9961,METERS,-73.3639,NY
GHCND:US1NYCL0007,55.2,2009-04-01,2020-01-11,44.564615,"PERU 4.1 ESE, NY US",0.9999,METERS,-73.453901,NY
GHCND:US1NYCL0008,180.1,2009-10-01,2011-11-24,44.709085,"MORRISONVILLE 1.5 NW, NY US",0.998,METERS,-73.587582,NY
GHCND:US1NYCL0012,253.0,2015-09-15,2020-01-07,44.639802,"SARANAC 0.8 SSE, NY US",1.0,METERS,-73.738484,NY
GHCND:US1NYCM0002,579.1,2007-09-01,2012-12-28,42.083333,"ELMIRA 0.9 SE, NY US",0.4685,METERS,-76.8,NY
GHCND:US1NYCM0003,256.0,2004-01-01,2020-01-11,42.0839,"ELMIRA 1.3 ESE, NY US",1.0,METERS,-76.78813,NY
GHCND:US1NYCM0004,454.2,1998-06-01,2015-02-16,42.016667,"SOUTHPORT 3.8 SSW, NY US",0.7968,METERS,-76.85,NY
GHCND:US1NYCM0006,341.4,1998-06-01,2020-01-09,42.089,"ELMIRA 3.2 E, NY US",1.0,METERS,-76.74888,NY
GHCND:US1NYCM0007,271.3,2004-03-01,2019-11-07,42.08302,"WEST ELMIRA 0.5 SSE, NY US",0.607,METERS,-76.84616,NY
GHCND:US1NYCM0008,271.9,2004-02-01,2016-01-14,42.15,"HORSEHEADS 1.5 SSE, NY US",1.0,METERS,-76.816667,NY
GHCND:US1NYCM0010,182.9,1998-06-01,2020-01-11,42.2,"VAN ETTEN 0.3 ENE, NY US",0.9991,METERS,-76.55,NY
GHCND:US1NYCM0012,281.9,2008-02-01,2015-07-22,42.14365,"HORSEHEADS, NY US",0.8449,METERS,-76.951193,NY
GHCND:US1NYCM0013,269.4,2009-04-01,2020-01-11,42.097495,"ELMIRA 0.7 WNW, NY US",0.9999,METERS,-76.823097,NY
GHCND:US1NYCM0014,287.1,2009-09-01,2012-01-20,42.170709,"HORSEHEADS 0.7 W, NY US",0.9996,METERS,-76.843499,NY
GHCND:US1NYCM0017,484.0,2013-04-01,2020-01-09,42.002183,"PINE CITY 3.1 SE, NY US",1.0,METERS,-76.830849,NY
GHCND:US1NYCM0019,301.4,2013-10-01,2015-07-27,42.173443,"HORSEHEADS 1.6 W, NY US",0.5005,METERS,-76.860366,NY
GHCND:US1NYCM0020,265.5,2014-05-01,2019-11-07,42.132515,"HORSEHEADS 2.7 SSE, NY US",0.6947,METERS,-76.815854,NY
GHCND:US1NYCM0021,284.1,2014-05-01,2020-01-09,42.1021347045898,"ELMIRA 1.2 WNW, NY US",1.0,METERS,-76.8303680419922,NY
GHCND:US1NYCM0023,287.7,2015-07-28,2019-09-18,42.182384,"HORSEHEADS 0.9 NNW, NY US",0.4531,METERS,-76.834943,NY
GHCND:US1NYCM0024,325.8,2015-07-01,2020-01-11,42.0913,"CHEMUNG 5.7 N, NY US",0.9961,METERS,-76.6281,NY
GHCND:US1NYCN0002,548.6,2004-01-01,2019-12-31,42.583333,"NORWICH 5.7 NE, NY US",0.9729,METERS,-75.433333,NY
GHCND:US1NYCN0006,342.0,2008-01-01,2009-06-01,42.32246,"GREENE 1.2 ESE, NY US",0.9925,METERS,-75.75066,NY
GHCND:US1NYCN0008,384.0,2009-02-01,2015-09-03,42.726,"SHERBURNE 3.6 NNE, NY US",1.0,METERS,-75.462,NY
GHCND:US1NYCN0009,456.6,2009-07-01,2020-01-11,42.53356,"NORWICH 5.4 W, NY US",0.9999,METERS,-75.6306,NY
GHCND:US1NYCN0011,383.1,2010-11-01,2011-12-23,42.699043,"SMYRNA 2.4 WNW, NY US",0.643,METERS,-75.612127,NY
GHCND:US1NYCN0013,480.4,2013-08-01,2017-08-08,42.411996,"GUILFORD 0.9 NW, NY US",0.6894,METERS,-75.503693,NY
GHCND:US1NYCN0014,379.2,2013-08-01,2020-01-08,42.451643,"OXFORD 0.8 NNW, NY US",0.75,METERS,-75.601702,NY
GHCND:US1NYCN0016,348.7,2015-04-01,2020-01-11,42.287202,"BAINBRIDGE 2.9 WSW, NY US",0.9991,METERS,-75.536347,NY
GHCND:US1NYCN0018,550.2,2015-12-25,2017-06-25,42.212409,"BAINBRIDGE 6.5 SSE, NY US",1.0,METERS,-75.423793,NY
GHCND:US1NYCQ0005,391.4,2009-04-01,2019-12-05,42.15935,"KENNEDY 0.3 NE, NY US",0.738,METERS,-79.09668,NY
GHCND:US1NYCQ0006,356.3,2009-12-01,2020-01-01,42.447361,"FORESTVILLE 2.1 SW, NY US",0.4211,METERS,-79.204453,NY
GHCND:US1NYCQ0007,429.2,2009-06-01,2013-01-23,42.0015,"FREWSBURG 4.3 SSE, NY US",0.9987,METERS,-79.13,NY
GHCND:US1NYCQ0010,188.1,2010-06-01,2011-01-02,42.4825,"DUNKIRK 5.8 S, NY US",0.9819,METERS,-79.342833,NY
GHCND:US1NYCQ0012,463.9,2010-11-01,2019-11-02,42.09573,"JAMESTOWN 1.8 E, NY US",0.6771,METERS,-79.20133,NY
GHCND:US1NYCQ0015,477.0,2011-03-01,2013-10-03,42.16206667,"SHERMAN 0.4 ENE, NY US",0.8732,METERS,-79.58851667,NY
GHCND:US1NYCQ0017,430.4,2011-07-01,2014-11-12,42.446,"FORESTVILLE 2.5 SE, NY US",0.8529,METERS,-79.1371,NY
GHCND:US1NYCQ0019,392.6,2012-07-01,2015-08-26,42.2127342224121,"RIPLEY 4.3 SSW, NY US",0.9471,METERS,-79.7554626464844,NY
GHCND:US1NYCQ0021,441.0,2013-11-01,2019-11-01,42.01601,"FREWSBURG 3.4 SSE, NY US",1.0,METERS,-79.124928,NY
GHCND:US1NYCQ0022,207.3,2014-05-01,2020-01-11,42.444141,"FREDONIA 0.8 WNW, NY US",0.9987,METERS,-79.346077,NY
GHCND:US1NYCQ0034,478.5,2018-06-01,2019-12-29,42.125676,"KENNEDY 2.6 SE, NY US",0.7604,METERS,-79.072352,NY
GHCND:US1NYCQ0035,385.9,2018-10-04,2020-01-11,42.11766,"FALCONER 0.3 WSW, NY US",1.0,METERS,-79.20278,NY
GHCND:US1NYCQ0036,540.4,2018-11-14,2020-01-11,42.1617,"JAMESTOWN 5.0 NNW, NY US",0.7547,METERS,-79.2819,NY
GHCND:US1NYCR0001,476.7,2006-07-01,2020-01-11,42.53299,"FREETOWN 1.0 NE, NY US",0.5042,METERS,-76.021115,NY
GHCND:US1NYCR0003,427.3,2004-01-01,2020-01-11,42.47385,"WILLET 1.8 E, NY US",1.0,METERS,-75.87249,NY
GHCND:US1NYCR0005,313.9,1998-06-17,2020-01-11,42.451608,"MARATHON 1.0 NW, NY US",1.0,METERS,-76.043708,NY
GHCND:US1NYCR0008,376.7,2010-04-01,2015-12-24,42.4407,"MARATHON 0.7 WSW, NY US",0.9127,METERS,-76.049,NY
GHCND:US1NYCR0010,336.8,2013-04-01,2016-02-04,42.60382,"CORTLAND 0.8 ENE, NY US",1.0,METERS,-76.1637,NY
GHCND:US1NYCR0013,417.9,2015-06-01,2017-11-08,42.565801,"CORTLAND 2.8 SSW, NY US",0.998,METERS,-76.205316,NY
GHCND:US1NYCT0002,406.9,2008-01-01,2020-01-09,42.170556,"RANDOLPH 1.1 ENE, NY US",0.4546,METERS,-78.961201,NY
GHCND:US1NYCT0003,486.5,2008-11-01,2013-06-24,42.284741,"CUBA 4.9 NNW, NY US",0.7685,METERS,-78.311518,NY
GHCND:US1NYCT0005,441.0,2008-09-01,2017-05-25,42.001301,"PORTVILLE 2.6 SSW, NY US",0.9213,METERS,-78.359479,NY
GHCND:US1NYCT0006,469.7,2008-09-01,2018-01-06,42.092,"OLEAN 1.2 NE, NY US",1.0,METERS,-78.413,NY
GHCND:US1NYCT0007,586.1,2008-09-01,2012-02-03,42.224,"HINSDALE 4.4 NW, NY US",1.0,METERS,-78.42992,NY
GHCND:US1NYCT0010,431.6,2009-05-01,2010-10-06,42.16585,"RANDOLPH 2.4 E, NY US",0.998,METERS,-78.9324,NY
GHCND:US1NYCT0011,508.1,2009-10-01,2018-07-19,42.158704,"ALLEGANY 4.7 N, NY US",1.0,METERS,-78.490541,NY
GHCND:US1NYCT0012,481.6,2009-05-01,2009-10-10,42.33125,"FRANKLINVILLE 0.4 SW, NY US",0.9925,METERS,-78.461496,NY
GHCND:US1NYCT0014,378.9,2009-09-01,2009-12-22,42.46,"PERRYSBURG 0.1 ENE, NY US",1.0,METERS,-79.0,NY
GHCND:US1NYCT0015,469.4,2011-11-01,2016-05-13,42.401217,"WEST VALLEY 0.1 SE, NY US",1.0,METERS,-78.609164,NY
GHCND:US1NYCT0021,518.2,2012-07-01,2016-12-01,42.2647154331207,"LITTLE VALLEY 1.1 N, NY US",0.9109,METERS,-78.8010290265083,NY
GHCND:US1NYCT0022,488.6,2012-12-01,2020-01-11,42.341661,"FRANKLINVILLE 0.5 NNE, NY US",1.0,METERS,-78.452813,NY
GHCND:US1NYCT0025,466.0,2016-06-22,2020-01-11,42.2429962158203,"ISCHUA 0.4 SSE, NY US",0.9369,METERS,-78.3964233398438,NY
GHCND:US1NYCY0001,259.1,2004-01-01,2016-04-12,42.739,"AURORA 2.8 ESE, NY US",0.8436,METERS,-76.657,NY
GHCND:US1NYCY0002,158.5,2004-01-01,2020-01-07,42.89659,"CAYUGA 3.2 ESE, NY US",1.0,METERS,-76.67266,NY
GHCND:US1NYCY0003,155.4,2004-01-01,2007-11-19,42.933333,"CAYUGA 4.1 ENE, NY US",0.9578,METERS,-76.65,NY
GHCND:US1NYCY0004,246.9,2007-10-01,2010-11-26,42.6569,"LOCKE 0.3 SW, NY US",0.6051,METERS,-76.4336,NY
GHCND:US1NYCY0005,122.2,2008-12-01,2019-12-29,43.142047,"DUCK LAKE, NY US",0.7712,METERS,-76.688879,NY
GHCND:US1NYCY0008,320.0,2008-09-01,2020-01-11,42.828694,"AUBURN 8.3 SSE, NY US",1.0,METERS,-76.486712,NY
GHCND:US1NYCY0009,230.1,2008-10-01,2009-12-12,42.7031,"MORAVIA 0.6 S, NY US",0.9288,METERS,-76.4202,NY
GHCND:US1NYCY0010,121.6,2008-12-01,2011-09-14,43.223685,"MARTVILLE 4.0 SSE, NY US",1.0,METERS,-76.610688,NY
GHCND:US1NYCY0013,466.0,2009-05-01,2016-06-07,42.705076,"MORAVIA 2.5 ESE, NY US",0.6247,METERS,-76.37507,NY
GHCND:US1NYCY0014,143.9,2009-12-09,2020-01-11,42.97516,"CAYUGA 4.0 NNE, NY US",0.6665,METERS,-76.70716,NY
GHCND:US1NYCY0021,121.3,2011-03-01,2012-04-14,43.03811479,"PORT BYRON 0.2 WNW, NY US",0.9961,METERS,-76.63032385,NY
GHCND:US1NYCY0024,397.2,2012-04-01,2013-06-16,42.6295079290867,"LOCKE 2.4 SSE, NY US",0.9925,METERS,-76.4119935035706,NY
GHCND:US1NYCY0026,152.7,2014-04-01,2020-01-11,42.786382,"AURORA 2.4 N, NY US",0.9993,METERS,-76.703445,NY
GHCND:US1NYCY0027,532.2,2014-07-01,2019-12-18,42.7349128723145,"MORAVIA 5.9 ENE, NY US",1.0,METERS,-76.3113708496094,NY
GHCND:US1NYDL0003,609.6,2005-07-01,2010-05-01,42.418873,"STAMFORD 0.7 NNW, NY US",0.966,METERS,-74.620995,NY
GHCND:US1NYDL0005,462.1,2005-09-01,2020-01-10,42.30026,"DELHI 1.5 NNE, NY US",1.0,METERS,-74.90265,NY
GHCND:US1NYDL0006,534.0,2005-05-01,2008-11-10,42.26085,"DELHI 5.0 ESE, NY US",0.9759,METERS,-74.8195,NY
GHCND:US1NYDL0008,427.0,2005-05-01,2015-02-09,42.149568,"MARGARETVILLE 1.7 ENE, NY US",0.7493,METERS,-74.618855,NY
GHCND:US1NYDL0009,502.9,2005-05-01,2015-08-07,42.179167,"ANDES 6.8 W, NY US",0.9192,METERS,-74.916667,NY
GHCND:US1NYDL0016,277.4,2008-03-01,2017-10-30,41.951121,"HANCOCK 1.0 W, NY US",0.8246,METERS,-75.302371,NY
GHCND:US1NYDL0017,305.4,2009-03-01,2009-10-14,41.989303,"EAST BRANCH 0.2 S, NY US",0.9939,METERS,-75.131768,NY
GHCND:US1NYDL0022,457.2,2011-07-01,2013-09-03,42.344167,"SOUTH KORTRIGHT 0.8 W, NY US",0.9986,METERS,-74.731667,NY
GHCND:US1NYDL0023,532.2,2012-04-01,2020-01-11,41.9351,"LONG EDDY 6.5 NNE, NY US",1.0,METERS,-75.0784,NY
GHCND:US1NYDL0024,380.7,2012-07-01,2020-01-10,42.165338,"WALTON 6.5 W, NY US",0.9294,METERS,-75.258472,NY
GHCND:US1NYDL0025,676.7,2012-10-01,2020-01-11,42.3523,"HOBART 4.8 ESE, NY US",1.0,METERS,-74.5783,NY
GHCND:US1NYDL0028,760.8,2015-01-01,2020-01-11,42.237796,"FLEISCHMANNS 5.7 N, NY US",1.0,METERS,-74.523357,NY
GHCND:US1NYDL0031,465.7,2015-10-31,2017-07-24,42.196411,"DELANCEY 0.9 SE, NY US",0.5356,METERS,-74.95975,NY
GHCND:US1NYDL0032,616.3,2017-06-26,2020-01-11,42.321181,"DELHI 6.6 WNW, NY US",1.0,METERS,-75.029912,NY
GHCND:US1NYDL0034,492.9,2019-05-01,2020-01-09,42.463813,"SCHENEVUS 5.9 SSW, NY US",0.8725,METERS,-74.851466,NY
GHCND:US1NYDT0001,90.5,2007-10-01,2016-04-26,41.616,"HILLSIDE LAKE 0.3 WNW, NY US",1.0,METERS,-73.8033,NY
GHCND:US1NYDT0002,112.5,2008-11-01,2012-11-15,41.66345,"POUGHKEEPSIE 4.7 ESE, NY US",1.0,METERS,-73.84191,NY
GHCND:US1NYDT0004,85.0,2010-02-01,2018-08-31,41.55348,"HOPEWELL JUNCTION 2.4 SSE, NY US",1.0,METERS,-73.78633,NY
GHCND:US1NYDT0005,70.4,2010-10-01,2020-01-11,41.587969,"WAPPINGERS FALLS 1.6 ESE, NY US",1.0,METERS,-73.892214,NY
GHCND:US1NYDT0007,55.5,2010-05-01,2014-09-07,41.788689,"HYDE PARK 1.5 W, NY US",0.801,METERS,-73.935615,NY
GHCND:US1NYDT0008,312.1,2011-11-01,2020-01-10,41.7523,"MILLBROOK 3.2 SE, NY US",1.0,METERS,-73.6488,NY
GHCND:US1NYDT0009,64.6,2011-11-01,2013-01-04,41.923129,"RHINEBECK 0.5 SE, NY US",0.9898,METERS,-73.902141,NY
GHCND:US1NYDT0010,72.5,2012-04-01,2020-01-11,41.647,"POUGHKEEPSIE 3.9 SSE, NY US",1.0,METERS,-73.897,NY
GHCND:US1NYDT0012,197.5,2012-10-01,2020-01-11,41.6846,"LAGRANGEVILLE 3.4 NE, NY US",1.0,METERS,-73.7205,NY
GHCND:US1NYDT0016,106.4,2016-04-12,2019-10-12,41.5483703613281,"FISHKILL 1.2 NE, NY US",0.7451,METERS,-73.8802947998047,NY
GHCND:US1NYDT0017,119.8,2016-10-08,2017-11-10,42.015514,"PINE PLAINS 4.9 WNW, NY US",0.9956,METERS,-73.739194,NY
GHCND:US1NYDT0020,122.8,2017-04-18,2019-10-23,41.607415,"HOPEWELL JUNCTION 2.9 ENE, NY US",0.8271,METERS,-73.753202,NY
GHCND:US1NYDT0023,70.7,2017-07-01,2020-01-11,41.49696,"BEACON 0.7 SE, NY US",0.7124,METERS,-73.95587,NY
GHCND:US1NYDT0024,65.8,2017-07-13,2020-01-11,42.009676,"RED HOOK 1.2 NNE, NY US",1.0,METERS,-73.864194,NY
GHCND:US1NYDT0028,170.7,2018-05-19,2020-01-10,41.875495,"RHINEBECK 5.2 SE, NY US",0.8522,METERS,-73.837303,NY
GHCND:US1NYDT0029,51.5,2018-05-29,2020-01-11,41.61955,"POUGHKEEPSIE 5.3 S, NY US",1.0,METERS,-73.91306667,NY
GHCND:US1NYDT0032,234.7,2019-01-01,2020-01-11,41.809542,"MILLBROOK 2.5 NE, NY US",1.0,METERS,-73.658804,NY
GHCND:US1NYDT0034,103.6,2019-03-13,2020-01-10,41.61016,"HOPEWELL JUNCTION 2.8 NE, NY US",0.9961,METERS,-73.75855,NY
GHCND:US1NYDT0035,116.7,2019-04-06,2020-01-11,41.7237,"PLEASANT VALLEY 1.7 S, NY US",0.9947,METERS,-73.821,NY
GHCND:US1NYER0001,182.9,2007-09-01,2010-08-26,42.9866,"TONAWANDA 0.5 ENE, NY US",0.9998,METERS,-78.8662,NY
GHCND:US1NYER0002,178.0,2007-09-01,2011-01-25,42.8685,"BUFFALO 1.5 S, NY US",0.9991,METERS,-78.8635,NY
GHCND:US1NYER0003,246.9,2007-09-01,2012-09-27,42.8627,"ELMA 3.5 NE, NY US",1.0,METERS,-78.584,NY
GHCND:US1NYER0004,184.1,2009-11-01,2012-04-25,43.021609,"WILLIAMSVILLE 4.1 N, NY US",0.5006,METERS,-78.743216,NY
GHCND:US1NYER0006,187.1,2008-02-01,2012-07-19,42.962517,"KENMORE 2.7 E, NY US",0.998,METERS,-78.817613,NY
GHCND:US1NYER0007,214.0,2008-05-01,2020-01-11,42.9693,"WILLIAMSVILLE 2.7 E, NY US",0.9998,METERS,-78.68785,NY
GHCND:US1NYER0008,253.6,2008-07-01,2009-12-19,42.956594,"AKRON 4.4 SSE, NY US",0.7207,METERS,-78.478302,NY
GHCND:US1NYER0009,233.8,2008-07-01,2012-08-28,42.816679,"WEST SENECA 2.4 SE, NY US",1.0,METERS,-78.713602,NY
GHCND:US1NYER0010,313.6,2008-07-01,2008-11-29,42.662742,"COLDEN 1.3 NNE, NY US",0.9947,METERS,-78.683066,NY
GHCND:US1NYER0012,216.1,2008-07-01,2009-12-21,42.834626,"WEST SENECA 1.4 E, NY US",0.998,METERS,-78.724199,NY
GHCND:US1NYER0013,182.6,1998-06-01,2020-01-03,42.859264,"WEST SENECA 2.3 NW, NY US",0.1563,METERS,-78.785397,NY
GHCND:US1NYER0015,215.5,2008-08-01,2012-09-23,42.873954,"LANCASTER 2.3 SE, NY US",0.58,METERS,-78.644114,NY
GHCND:US1NYER0024,198.1,2009-06-01,2019-12-02,42.901661,"BUFFALO 1.3 NW, NY US",0.7693,METERS,-78.879054,NY
GHCND:US1NYER0025,182.6,2008-08-01,2019-09-06,42.975033,"TONAWANDA 2.6 ESE, NY US",0.4828,METERS,-78.826033,NY
GHCND:US1NYER0026,190.2,2008-07-01,2009-06-18,42.714237,"DERBY 2.4 NNE, NY US",0.998,METERS,-78.971544,NY
GHCND:US1NYER0029,391.7,2008-07-01,2009-08-10,42.587031,"NORTH COLLINS 4.9 E, NY US",0.9925,METERS,-78.841807,NY
GHCND:US1NYER0035,203.9,2008-07-01,2010-07-16,42.852622,"WEST SENECA 2.6 ENE, NY US",0.6,METERS,-78.703358,NY
GHCND:US1NYER0039,241.4,2008-07-01,2020-01-11,42.722525,"HAMBURG 0.4 WSW, NY US",0.9999,METERS,-78.843324,NY
GHCND:US1NYER0040,185.6,2008-08-01,2008-12-12,43.015273,"EAST AMHERST 1.4 ESE, NY US",0.9947,METERS,-78.670499,NY
GHCND:US1NYER0044,281.6,2008-07-01,2011-03-13,42.8056,"ELMA CENTER 1.9 SE, NY US",0.8185,METERS,-78.6081,NY
GHCND:US1NYER0045,283.8,2008-08-01,2015-11-01,42.7443,"EAST AURORA 6.7 ESE, NY US",0.7047,METERS,-78.4884,NY
GHCND:US1NYER0046,199.3,2008-08-01,2009-01-06,42.986,"WILLIAMSVILLE 3.6 ENE, NY US",1.0,METERS,-78.677003,NY
GHCND:US1NYER0050,280.1,2008-11-01,2020-01-11,42.7675,"EAST AURORA 0.1 ENE, NY US",1.0,METERS,-78.6158,NY
GHCND:US1NYER0051,191.1,2009-11-01,2020-01-11,43.020958,"CLARENCE CENTER 0.9 N, NY US",0.9353,METERS,-78.62886,NY
GHCND:US1NYER0053,185.9,2009-05-01,2020-01-11,42.836038,"WEST SENECA 1.9 W, NY US",0.9999,METERS,-78.789668,NY
GHCND:US1NYER0054,178.0,2009-06-01,2020-01-10,43.02250248,"EAST AMHERST 1.2 WNW, NY US",0.817,METERS,-78.7189636,NY
GHCND:US1NYER0057,185.0,2009-07-01,2020-01-11,42.973478,"KENMORE 0.8 NW, NY US",0.9998,METERS,-78.881651,NY
GHCND:US1NYER0058,185.9,2009-09-01,2011-08-25,42.842053,"BUFFALO 4.3 SE, NY US",1.0,METERS,-78.804097,NY
GHCND:US1NYER0059,186.5,2009-10-01,2020-01-11,42.963156,"KENMORE 0.3 ESE, NY US",1.0,METERS,-78.866894,NY
GHCND:US1NYER0060,192.0,1998-06-17,2020-01-11,42.776573,"BLASDELL 1.5 SSW, NY US",1.0,METERS,-78.844437,NY
GHCND:US1NYER0063,430.1,2009-10-01,2020-01-11,42.601951,"GLENWOOD 1.5 SE, NY US",1.0,METERS,-78.63909,NY
GHCND:US1NYER0065,475.8,2009-10-01,2020-01-11,42.6547,"BOSTON 1.5 NE, NY US",0.577,METERS,-78.7201,NY
GHCND:US1NYER0066,310.0,2009-10-01,2020-01-01,42.7645,"EAST AURORA 1.0 ESE, NY US",0.5385,METERS,-78.598,NY
GHCND:US1NYER0067,202.1,2009-12-01,2012-03-04,42.838041,"WEST SENECA 0.9 E, NY US",0.4644,METERS,-78.733881,NY
GHCND:US1NYER0068,222.5,2009-10-01,2011-02-09,42.93135,"LANCASTER 2.1 NNW, NY US",1.0,METERS,-78.67848,NY
GHCND:US1NYER0072,173.7,2010-01-01,2020-01-11,43.01368,"TONAWANDA 3.1 NE, NY US",1.0,METERS,-78.82959,NY
GHCND:US1NYER0075,265.8,2010-03-01,2020-01-11,42.81935408,"ELMA CENTER 0.7 SE, NY US",0.9995,METERS,-78.62138546,NY
GHCND:US1NYER0077,502.9,2009-08-01,2020-01-11,42.650875,"COLDEN 2.4 ENE, NY US",0.9912,METERS,-78.610579,NY
GHCND:US1NYER0078,248.7,2011-05-01,2019-11-13,42.71491,"HAMBURG 0.6 S, NY US",0.6436,METERS,-78.83386,NY
GHCND:US1NYER0079,206.7,1998-06-01,2019-09-24,42.9108,"DEPEW 0.1 S, NY US",0.4815,METERS,-78.7049,NY
GHCND:US1NYER0080,233.2,2010-06-01,2015-01-06,42.926463,"LANCASTER 4.1 ENE, NY US",0.7493,METERS,-78.595198,NY
GHCND:US1NYER0081,182.3,2010-08-01,2015-10-25,42.97049,"TONAWANDA 2.6 ESE, NY US",0.7776,METERS,-78.828395,NY
GHCND:US1NYER0083,96.9,2010-09-01,2014-04-30,42.9698368,"WILLIAMSVILLE 1 NW, NY US",0.9973,METERS,-78.76630158,NY
GHCND:US1NYER0085,251.2,2010-11-01,2019-11-12,42.985235,"AKRON 2.4 S, NY US",0.7973,METERS,-78.486344,NY
GHCND:US1NYER0086,176.5,2011-02-01,2020-01-11,43.00506667,"TONAWANDA 1.5 NNE, NY US",0.9522,METERS,-78.86601667,NY
GHCND:US1NYER0093,178.0,2012-06-01,2020-01-11,42.889013,"BUFFALO 1.5 W, NY US",0.6511,METERS,-78.890068,NY
GHCND:US1NYER0094,257.3,2012-06-01,2014-04-16,42.769951,"ORCHARD PARK 0.5 N, NY US",0.7403,METERS,-78.744314,NY
GHCND:US1NYER0095,183.5,2012-07-01,2015-01-13,42.950848,"BUFFALO 4.3 N, NY US",0.9375,METERS,-78.871906,NY
GHCND:US1NYER0096,254.5,2012-09-01,2020-01-11,42.8100395202637,"ELMA 2.7 WSW, NY US",1.0,METERS,-78.681266784668,NY
GHCND:US1NYER0098,176.8,2013-04-01,2020-01-11,43.052068,"AMHERST 5.4 NNE, NY US",0.9998,METERS,-78.764317,NY
GHCND:US1NYER0100,199.0,2013-04-01,2014-11-20,42.7138,"LAKE VIEW 1.2 W, NY US",0.9925,METERS,-78.9589,NY
GHCND:US1NYER0102,214.3,2013-05-01,2020-01-11,42.941192,"CHEEKTOWAGA 2.7 NE, NY US",0.9998,METERS,-78.719333,NY
GHCND:US1NYER0103,207.0,2013-08-01,2016-02-18,42.834731,"BUFFALO 4.2 SSE, NY US",1.0,METERS,-78.822732,NY
GHCND:US1NYER0104,179.5,2013-12-01,2020-01-11,42.99422,"WILLIAMSVILLE 2.2 NNW, NY US",0.9646,METERS,-78.752629,NY
GHCND:US1NYER0107,186.2,2014-02-01,2018-10-04,42.9854879,"AMHERST 3.3 ENE, NY US",1.0,METERS,-78.726854,NY
GHCND:US1NYER0109,188.7,2014-05-01,2019-05-23,42.986363,"BUFFALO 6.7 N, NY US",0.9973,METERS,-78.870561,NY
GHCND:US1NYER0110,183.8,2015-07-01,2016-12-01,42.985776,"TONAWANDA 0.8 W, NY US",0.9947,METERS,-78.890466,NY
GHCND:US1NYER0113,198.4,2014-12-01,2019-09-25,42.837002,"WEST SENECA 0.4 E, NY US",1.0,METERS,-78.743309,NY
GHCND:US1NYER0116,249.9,2015-04-01,2016-02-09,42.871765,"ALDEN 3.6 WSW, NY US",0.9994,METERS,-78.554557,NY
GHCND:US1NYER0120,198.4,2015-06-01,2019-11-08,42.704292,"DERBY 1.7 NNE, NY US",0.9956,METERS,-78.962067,NY
GHCND:US1NYER0122,204.5,2015-10-01,2020-01-11,42.9345703125,"CHEEKTOWAGA 2.4 NW, NY US",0.998,METERS,-78.7829513549805,NY
GHCND:US1NYER0123,177.1,2015-11-04,2019-11-12,43.04554,"CLARENCE CENTER 5.2 WNW, NY US",0.5537,METERS,-78.7215,NY
GHCND:US1NYER0124,199.0,2016-03-28,2016-11-24,42.9235,"CHEEKTOWAGA 1.3 NW, NY US",0.9956,METERS,-78.7679,NY
GHCND:US1NYER0125,249.3,2016-03-10,2019-11-20,42.7228,"HAMBURG 0.3 ESE, NY US",0.5063,METERS,-78.8288,NY
GHCND:US1NYER0132,213.4,2017-05-08,2019-06-11,42.874417,"LANCASTER 1.9 SSE, NY US",0.5994,METERS,-78.66026,NY
GHCND:US1NYER0135,187.5,2017-10-08,2020-01-10,42.853983,"WEST SENECA 1.5 NW, NY US",1.0,METERS,-78.771591,NY
GHCND:US1NYER0138,269.4,2017-08-11,2020-01-11,42.814,"EAST AURORA 3.4 NNE, NY US",0.9186,METERS,-78.5967,NY
GHCND:US1NYER0145,267.9,2017-08-31,2018-12-13,42.82561,"ELMA CENTER 1.6 E, NY US",0.8787,METERS,-78.60114,NY
GHCND:US1NYER0147,180.7,1998-06-17,2018-09-30,42.99744,"WILLIAMSVILLE 2.4 N, NY US",1.0,METERS,-78.7403,NY
GHCND:US1NYER0150,318.8,2017-09-03,2020-01-09,42.634848,"EDEN 1.4 SSE, NY US",0.5995,METERS,-78.886219,NY
GHCND:US1NYER0151,197.5,2017-09-18,2020-01-11,43.007421,"CLARENCE CENTER 0.2 ESE, NY US",0.9326,METERS,-78.629174,NY
GHCND:US1NYER0158,330.7,2018-06-01,2020-01-11,42.729368,"EAST AURORA 2.7 SSE, NY US",0.9017,METERS,-78.605611,NY
GHCND:US1NYER0159,222.2,2018-08-09,2019-11-08,42.9334,"LANCASTER 2.9 NE, NY US",0.6477,METERS,-78.6336,NY
GHCND:US1NYER0164,217.0,2019-01-10,2020-01-11,43.0286,"AKRON 0.9 NE, NY US",0.7748,METERS,-78.4836,NY
GHCND:US1NYER0166,490.7,2018-11-27,2020-01-11,42.6548,"BOSTON 2.5 NE, NY US",0.91,METERS,-78.703,NY
GHCND:US1NYES0001,578.8,2008-09-01,2017-11-23,44.304886,"LAKE PLACID 1.5 N, NY US",0.9233,METERS,-73.986382,NY
GHCND:US1NYES0004,355.7,2012-07-01,2013-11-03,44.243474,"KEENE 1.3 SW, NY US",0.7051,METERS,-73.809978,NY
GHCND:US1NYES0005,416.7,2001-04-01,2019-12-14,43.808639,"SCHROON LAKE 3.5 SW, NY US",1.0,METERS,-73.818869,NY
GHCND:US1NYES0006,459.3,2012-12-01,2020-01-11,43.8335,"OLMSTEDVILLE 4.6 NNE, NY US",1.0,METERS,-73.89775,NY
GHCND:US1NYES0007,160.9,2015-03-01,2020-01-11,44.495048,"KEESEVILLE 0.8 SE, NY US",0.9994,METERS,-73.471093,NY
GHCND:US1NYES0008,524.3,2016-04-28,2019-11-01,44.425582,"BLOOMINGDALE 7.8 E, NY US",0.4871,METERS,-73.931402,NY
GHCND:US1NYES0009,599.2,2016-09-16,2019-11-01,44.21543,"KEENE VALLEY 2.5 NE, NY US",0.8887,METERS,-73.75098,NY
GHCND:US1NYFK0002,517.6,2008-10-01,2017-05-03,44.4952196,"ONCHIOTA 0.3 ENE, NY US",0.7385,METERS,-74.11840439,NY
GHCND:US1NYFK0007,521.2,2014-11-01,2020-01-11,44.413592,"SARANAC LAKE 6.2 N, NY US",1.0,METERS,-74.152111,NY
GHCND:US1NYFK0009,514.5,2018-04-13,2020-01-11,44.41934,"GABRIELS 1.3 SE, NY US",0.8826,METERS,-74.16194,NY
GHCND:US1NYFL0007,285.3,2017-09-10,2020-01-10,43.039401,"BROADALBIN 4.7 ESE, NY US",0.891,METERS,-74.108452,NY
GHCND:US1NYFL0008,270.7,2018-05-10,2019-11-01,43.0500458,"GLOVERSVILLE 0.9 E, NY US",0.9947,METERS,-74.3288013,NY
GHCND:US1NYFL0009,266.7,2018-11-27,2020-01-11,43.23027778,"NORTHVILLE 0.6 N, NY US",1.0,METERS,-74.17222222,NY
GHCND:US1NYGN0001,191.1,2007-10-01,2008-09-21,43.1097,"OAKFIELD 6.5 WNW, NY US",0.998,METERS,-78.3837,NY
GHCND:US1NYGN0006,274.0,2011-08-01,2020-01-11,42.9989,"STAFFORD 1.8 NE, NY US",0.9997,METERS,-78.0483,NY
GHCND:US1NYGN0009,280.4,2013-11-01,2015-08-21,42.9338302612305,"BATAVIA 4.5 S, NY US",1.0,METERS,-78.1934967041016,NY
GHCND:US1NYGN0011,275.5,2016-04-26,2020-01-11,42.9984712600708,"BATAVIA 1.2 W, NY US",1.0,METERS,-78.2056557387114,NY
GHCND:US1NYGN0013,271.9,2017-09-09,2020-01-11,42.988665,"BATAVIA 3.4 WSW, NY US",0.931,METERS,-78.247293,NY
GHCND:US1NYGN0015,299.0,2018-04-28,2018-11-15,42.930249,"CORFU 3.0 SE, NY US",0.5743,METERS,-78.357043,NY
GHCND:US1NYGN0018,306.3,2018-11-27,2019-11-18,42.897974,"DARIEN CENTER 2.2 W, NY US",0.5575,METERS,-78.431489,NY
GHCND:US1NYGR0005,12.2,2009-11-01,2020-01-11,42.4429425,"NEW BALTIMORE 0.2 SE, NY US",0.9743,METERS,-73.7866275,NY
GHCND:US1NYGR0006,229.8,2011-08-01,2020-01-11,42.36045,"FREEHOLD 3.4 E, NY US",0.9997,METERS,-73.983468,NY
GHCND:US1NYGR0007,248.7,2012-05-01,2020-01-11,42.414,"GREENVILLE 0.7 E, NY US",0.9997,METERS,-74.009,NY
GHCND:US1NYGR0009,61.9,2017-04-26,2019-11-11,42.295868,"ATHENS 2.2 NNW, NY US",0.3419,METERS,-73.832709,NY
GHCND:US1NYGR0013,641.9,2017-01-01,2020-01-10,42.138847,"TANNERSVILLE 4.5 SSE, NY US",1.0,METERS,-74.086976,NY
GHCND:US1NYHM0001,524.9,2007-11-01,2020-01-11,43.451331,"SPECULATOR 10.0 SSW, NY US",0.7426,METERS,-74.47115,NY
GHCND:US1NYHM0002,545.3,2009-10-01,2014-10-16,43.74909,"INLET 2.2 ESE, NY US",0.9343,METERS,-74.7493,NY
GHCND:US1NYHM0005,551.4,1998-06-01,2011-02-06,43.873063,"LONG LAKE 12.6 SW, NY US",0.0588,METERS,-74.632586,NY
GHCND:US1NYHM0006,506.6,2014-01-01,2020-01-11,43.97155,"LONG LAKE 0.1 SSE, NY US",1.0,METERS,-74.41997,NY
GHCND:US1NYHR0001,556.0,2007-11-01,2011-02-28,43.694486,"BISBY GATEHOUSE AT ALC, NY US",0.9261,METERS,-74.986406,NY
GHCND:US1NYHR0004,150.6,2008-06-01,2019-11-01,43.016588,"ILION 0.8 WNW, NY US",0.7128,METERS,-75.055279,NY
GHCND:US1NYHR0006,219.2,2007-05-01,2013-10-04,43.105136,"LITTLE FALLS 7.5 NW, NY US",0.9583,METERS,-74.973189,NY
GHCND:US1NYHR0009,538.9,2009-10-01,2013-07-28,43.705226,"OLD FORGE 0.8 SE, NY US",0.8696,METERS,-74.958983,NY
GHCND:US1NYHR0010,274.6,2010-04-01,2010-12-26,43.092521,"DOLGEVILLE 0.7 SW, NY US",0.9961,METERS,-74.780875,NY
GHCND:US1NYHR0012,312.7,2012-07-01,2020-01-11,43.123203,"DOLGEVILLE 1.9 NW, NY US",0.9776,METERS,-74.797358,NY
GHCND:US1NYHR0016,160.9,2017-04-29,2020-01-11,43.0088071,"ILION 0.7 WSW, NY US",0.9251,METERS,-75.0539063,NY
GHCND:US1NYHR0018,423.4,2019-01-10,2020-01-11,43.1626,"SALISBURY CENTER 1.8 NW, NY US",0.7439,METERS,-74.8088,NY
GHCND:US1NYJF0003,235.9,2008-04-01,2019-11-10,44.00916,"CARTHAGE 2.5 NE, NY US",0.6343,METERS,-75.56525,NY
GHCND:US1NYJF0004,107.9,2008-02-01,2009-09-15,44.340191666667,"ALEXANDRIA BAY 3.5 E, NY US",1.0,METERS,-75.847836111111,NY
GHCND:US1NYJF0005,80.8,2008-08-01,2010-10-05,44.22936,"CLAYTON 0.6 SW, NY US",0.9257,METERS,-76.09562,NY
GHCND:US1NYJF0007,135.3,2008-10-01,2015-11-23,44.175038,"THERESA 2.8 S, NY US",1.0,METERS,-75.791367,NY
GHCND:US1NYJF0008,189.0,2008-10-01,2019-10-01,44.01942,"FELTS MILLS 0.1 NNW, NY US",0.5334,METERS,-75.76552,NY
GHCND:US1NYJF0010,122.2,2008-10-01,2014-04-20,43.981854,"WATERTOWN 1.3 WNW, NY US",1.0,METERS,-75.933962,NY
GHCND:US1NYJF0011,238.7,2008-11-01,2018-01-04,43.961559,"CARTHAGE 2.0 SW, NY US",0.8655,METERS,-75.627088,NY
GHCND:US1NYJF0013,192.3,2008-09-01,2010-07-22,44.009384,"BLACK RIVER 1.0 E, NY US",1.0,METERS,-75.777027,NY
GHCND:US1NYJF0019,239.9,1998-06-01,2011-02-28,43.972315,"CARTHAGE 1.2 SW, NY US",1.0,METERS,-75.620424,NY
GHCND:US1NYJF0020,151.8,2009-10-01,2010-03-31,43.970768,"WATERTOWN 0.2 SSE, NY US",1.0,METERS,-75.90898,NY
GHCND:US1NYJF0026,189.6,2014-01-01,2019-12-05,43.7122459411621,"MANNSVILLE 0.3 SE, NY US",1.0,METERS,-76.062126159668,NY
GHCND:US1NYJF0030,240.8,2015-05-20,2020-01-11,43.9749374389648,"WEST CARTHAGE 0.3 ENE, NY US",1.0,METERS,-75.6164016723633,NY
GHCND:US1NYJF0032,159.1,2017-01-01,2020-01-08,43.966938,"WATERTOWN 1.0 ESE, NY US",1.0,METERS,-75.892041,NY
GHCND:US1NYJF0039,97.2,2018-02-27,2019-11-24,43.994073,"DEXTER 1.5 SE, NY US",0.533,METERS,-76.022218,NY
GHCND:US1NYKN0003,7.9,2008-11-01,2009-05-31,40.61938,"BROOKLYN 2.4 SW, NY US",1.0,METERS,-73.98592,NY
GHCND:US1NYKN0025,5.5,2013-11-01,2020-01-11,40.6846,"BROOKLYN 3.1 NW, NY US",1.0,METERS,-73.9867,NY
GHCND:US1NYLV0001,462.1,2007-11-01,2020-01-10,42.5321,"DANSVILLE 3.6 WSW, NY US",0.4159,METERS,-77.7554,NY
GHCND:US1NYLV0002,190.5,2010-02-01,2017-09-15,42.918595,"AVON 0.5 NNE, NY US",0.9871,METERS,-77.743687,NY
GHCND:US1NYLV0005,458.7,2010-04-01,2020-01-11,42.568015,"DANSVILLE 1.0 ENE, NY US",0.9998,METERS,-77.678981,NY
GHCND:US1NYLW0001,296.0,2007-11-01,2011-02-03,43.57773,"PORT LEYDEN 0.7 SW, NY US",1.0,METERS,-75.351248,NY
GHCND:US1NYLW0002,285.9,2008-08-01,2020-01-11,44.093611,"HARRISVILLE 4.7 SSW, NY US",1.0,METERS,-75.365278,NY
GHCND:US1NYLW0003,501.7,2009-05-01,2020-01-11,43.575447,"CONSTABLEVILLE 1.2 NW, NY US",0.9877,METERS,-75.446434,NY
GHCND:US1NYLW0005,241.7,2009-12-01,2019-01-31,43.886166,"BEAVER FALLS 0.1 SW, NY US",0.7203,METERS,-75.428354,NY
GHCND:US1NYLW0009,297.8,2013-05-01,2019-12-14,43.6996192932129,"GLENFIELD 0.9 SSW, NY US",1.0,METERS,-75.4103775024414,NY
GHCND:US1NYLW0010,317.0,2013-11-01,2019-11-11,43.983109,"CROGHAN 6.2 N, NY US",1.0,METERS,-75.367493,NY
GHCND:US1NYMD0001,420.6,2004-02-01,2008-04-29,42.916667,"CAZENOVIA 2.6 WSW, NY US",1.0,METERS,-75.9,NY
GHCND:US1NYMD0002,133.2,2007-09-01,2013-09-06,43.0861,"ONEIDA 0.7 NNE, NY US",1.0,METERS,-75.66067,NY
GHCND:US1NYMD0005,166.4,2007-09-01,2013-08-10,43.071672,"CANASTOTA 0.9 S, NY US",0.9998,METERS,-75.755985,NY
GHCND:US1NYMD0008,120.1,2005-05-01,2010-12-10,43.138333,"LAKEPORT, NY US",0.9847,METERS,-75.870278,NY
GHCND:US1NYMD0009,329.2,2006-12-01,2020-01-11,42.739817,"EARLVILLE 0.4 W, NY US",0.9821,METERS,-75.55205,NY
GHCND:US1NYMD0010,445.9,2007-09-01,2020-01-11,42.90003,"CAZENOVIA 2.9 SE, NY US",1.0,METERS,-75.81137,NY
GHCND:US1NYMD0011,332.5,2007-10-01,2018-09-05,42.7614,"EARLVILLE 1.6 NNW, NY US",1.0,METERS,-75.5554,NY
GHCND:US1NYMD0014,307.5,2010-11-01,2019-11-08,42.953351,"MUNNSVILLE 2.0 SW, NY US",1.0,METERS,-75.6116739,NY
GHCND:US1NYMD0016,208.2,2011-05-01,2020-01-11,43.03297,"CHITTENANGO 2.1 ESE, NY US",0.9997,METERS,-75.83482,NY
GHCND:US1NYMD0017,397.8,2011-06-01,2012-11-02,42.94137,"MORRISVILLE 3.0 N, NY US",0.8871,METERS,-75.64459,NY
